#HEAD,13163,1321178,3139817234,1077
$GNGGA,081820.000,3724.3017,N,12707.0756,E,1,11,0.9,39.9,M,19.9,M,,0000*7A
$GNGLL,3724.3017,N,12707.0756,E,081820.000,A,A*44
$GNGSA,A,3,17,19,03,22,01,14,02,06,,,,,1.7,0.9,1.4*2B
$GNGSA,A,3,87,,,,,,,,,,,,1.7,0.9,1.4*29
$GNGSA,A,3,220,228,229,216,214,215,,,,,,,1.7,0.9,1.4*23
$GNGSA,A,3,59,58,,,,,,,,,,,1.7,0.9,1.4*27
$GNGST,081820.000,9.41,4.06,3.49,176.84,4.06,3.49,4.55*4E
$GNRMC,081820.000,A,3724.3017,N,12707.0756,E,0.00,58.69,270225,8.75,W,A*02
$GNVTG,58.69,T,67.44,M,0.00,N,0.0,K,A*0E
$GPGSV,3,1,11,17,67,345,45,19,40,309,42,03,55,072,42,22,66,261,41*7F
$GPGSV,3,2,11,01,31,051,41,02,20,059,34,06,28,256,34,14,59,207,34*70
$GPGSV,3,3,11,04,05,123,,11,00,246,,09,00,152,*47
$GLGSV,3,1,10,87,46,308,40,77,46,285,38,86,48,025,,76,39,216,*69
$GLGSV,3,2,10,71,31,097,,70,22,045,,72,12,146,,78,07,335,*61
$GLGSV,3,3,10,85,06,067,,88,01,268,*63
$GAGSV,2,1,07,220,58,290,42,228,68,226,41,229,36,310,40,216,69,012,38*61
$GAGSV,2,2,07,214,69,290,34,215,44,257,31,237,19,052,*66
$GQGSV,1,1,04,59,80,077,41,58,56,160,37,57,29,086,,60,26,163,*71
$GPADD1,0,0,0,0*67
#HEAD,13173,1322174,3163589007,1077
$GNGGA,081821.000,3724.3019,N,12707.0761,E,1,10,1.0,40.0,M,19.9,M,,0000*7F
$GNGLL,3724.3019,N,12707.0761,E,081821.000,A,A*4F
$GNGSA,A,3,17,19,03,22,01,06,02,,,,,,1.7,1.0,1.4*26
$GNGSA,A,3,87,,,,,,,,,,,,1.7,1.0,1.4*21
$GNGSA,A,3,220,228,229,216,214,215,,,,,,,1.7,1.0,1.4*2B
$GNGSA,A,3,59,58,,,,,,,,,,,1.7,1.0,1.4*2F
$GNGST,081821.000,9.19,3.42,2.86,176.66,3.41,2.86,3.92*41
$GNRMC,081821.000,A,3724.3019,N,12707.0761,E,2.16,71.40,270225,8.75,W,A*0C
$GNVTG,71.40,T,80.14,M,2.16,N,4.0,K,A*03
$GPGSV,3,1,11,17,67,345,45,19,40,309,42,03,55,072,42,22,66,261,41*7F
$GPGSV,3,2,11,01,31,051,41,02,20,059,34,06,28,256,34,14,59,207,34*70
$GPGSV,3,3,11,04,05,123,,11,00,246,,09,00,152,*47
$GLGSV,3,1,10,87,46,308,40,77,46,285,38,86,48,025,,76,39,216,*69
$GLGSV,3,2,10,71,31,097,,70,22,045,,72,12,146,,78,07,335,*61
$GLGSV,3,3,10,85,06,067,,88,01,268,*63
$GAGSV,2,1,07,220,58,290,42,228,68,226,41,229,36,310,40,216,69,012,38*61
$GAGSV,2,2,07,214,69,290,34,215,44,257,31,237,19,052,*66
$GQGSV,1,1,04,59,80,077,41,58,56,160,37,57,29,086,,60,26,163,*71
$GPADD1,0,42,13,0*63
#HEAD,13184,1323205,3149349678,1080
$GNGGA,081822.000,3724.3023,N,12707.0774,E,1,11,0.9,39.9,M,19.9,M,,0000*7F
$GNGLL,3724.3023,N,12707.0774,E,081822.000,A,A*41
$GNGSA,A,3,17,19,22,03,01,06,02,14,,,,,1.7,0.9,1.4*2B
$GNGSA,A,3,87,,,,,,,,,,,,1.7,0.9,1.4*29
$GNGSA,A,3,220,228,229,216,214,215,,,,,,,1.7,0.9,1.4*23
$GNGSA,A,3,59,58,,,,,,,,,,,1.7,0.9,1.4*27
$GNGST,081822.000,9.06,3.06,2.53,175.19,3.06,2.53,3.58*42
$GNRMC,081822.000,A,3724.3023,N,12707.0774,E,5.09,70.76,270225,8.75,W,A*0F
$GNVTG,70.76,T,79.50,M,5.09,N,9.4,K,A*01
$GPGSV,3,1,11,17,67,345,45,19,40,309,42,03,55,072,42,22,66,261,41*7F
$GPGSV,3,2,11,01,31,051,41,02,20,059,34,06,28,256,34,14,59,207,34*70
$GPGSV,3,3,11,04,05,123,,11,00,246,,09,00,152,*47
$GLGSV,3,1,10,87,46,308,40,77,46,285,38,86,48,025,,76,39,216,*69
$GLGSV,3,2,10,71,31,097,,70,22,045,,72,12,146,,78,07,335,*61
$GLGSV,3,3,10,85,06,067,,88,01,268,*63
$GAGSV,2,1,07,220,58,290,42,228,68,226,41,229,36,310,40,216,69,012,38*61
$GAGSV,2,2,07,214,69,290,34,215,44,257,31,237,19,052,*66
$GQGSV,1,1,04,59,80,077,41,58,56,160,37,57,29,086,,60,26,163,*71
$GPADD1,0,98,34,-1*4D
#HEAD,13194,1324226,3142390867,1081
$GNGGA,081823.000,3724.3030,N,12707.0798,E,1,11,0.9,39.8,M,19.9,M,,0000*7F
$GNGLL,3724.3030,N,12707.0798,E,081823.000,A,A*40
$GNGSA,A,3,17,22,03,19,01,06,02,14,,,,,1.7,0.9,1.4*2B
$GNGSA,A,3,87,,,,,,,,,,,,1.7,0.9,1.4*29
$GNGSA,A,3,220,228,229,216,214,215,,,,,,,1.7,0.9,1.4*23
$GNGSA,A,3,59,58,,,,,,,,,,,1.7,0.9,1.4*27
$GNGST,081823.000,9.06,3.53,2.89,174.57,3.52,2.90,4.20*49
$GNRMC,081823.000,A,3724.3030,N,12707.0798,E,8.34,70.03,270225,8.75,W,A*0F
$GNVTG,70.03,T,78.78,M,8.34,N,15.4,K,A*36
$GPGSV,3,1,11,17,67,345,44,22,66,261,42,03,55,072,41,19,40,309,41*7D
$GPGSV,3,2,11,01,31,051,40,06,28,256,38,02,20,059,35,14,59,207,35*7D
$GPGSV,3,3,11,04,05,123,,11,00,246,,09,00,152,*47
$GLGSV,3,1,10,87,46,308,40,77,46,285,38,86,48,025,,76,39,216,*69
$GLGSV,3,2,10,71,31,097,,70,22,045,,72,12,146,,78,07,335,*61
$GLGSV,3,3,10,85,06,067,,88,01,268,*63
$GAGSV,2,1,07,220,58,290,43,228,68,226,40,229,36,310,39,216,69,012,39*6E
$GAGSV,2,2,07,214,69,290,34,215,44,257,32,237,19,052,*65
$GQGSV,1,1,04,59,80,077,42,58,56,160,37,57,29,086,,60,26,163,*72
$GPADD1,0,161,58,0*5C
#HEAD,13203,1325175,3148920741,1083
$GNGGA,081824.000,3724.3040,N,12707.0831,E,1,11,0.9,39.7,M,19.9,M,,0000*7C
$GNGLL,3724.3040,N,12707.0831,E,081824.000,A,A*4C
$GNGSA,A,3,17,22,03,19,01,06,02,14,,,,,1.7,0.9,1.4*2B
$GNGSA,A,3,87,,,,,,,,,,,,1.7,0.9,1.4*29
$GNGSA,A,3,220,228,229,216,214,215,,,,,,,1.7,0.9,1.4*23
$GNGSA,A,3,59,58,,,,,,,,,,,1.7,0.9,1.4*27
$GNGST,081824.000,9.06,3.27,2.65,174.91,3.27,2.66,3.97*45
$GNRMC,081824.000,A,3724.3040,N,12707.0831,E,10.89,70.14,270225,8.75,W,A*3A
$GNVTG,70.14,T,78.89,M,10.89,N,20.2,K,A*01
$GPGSV,3,1,11,17,67,345,44,22,66,261,42,03,55,072,41,19,40,309,41*7D
$GPGSV,3,2,11,01,31,051,40,06,28,256,38,02,20,059,35,14,59,207,35*7D
$GPGSV,3,3,11,04,05,123,,11,00,246,,09,00,152,*47
$GLGSV,3,1,10,87,46,308,40,77,46,285,38,86,48,025,,76,39,216,*69
$GLGSV,3,2,10,71,31,097,,70,22,045,,72,12,146,,78,07,335,*61
$GLGSV,3,3,10,85,06,067,,88,01,268,*63
$GAGSV,2,1,07,220,58,290,43,228,68,226,40,229,36,310,39,216,69,012,39*6E
$GAGSV,2,2,07,214,69,290,34,215,44,257,32,237,19,052,*65
$GQGSV,1,1,04,59,80,077,42,58,56,160,37,57,29,086,,60,26,163,*72
$GPADD1,0,210,75,0*56
#HEAD,13213,1326179,3133144381,1084
$GNGGA,081825.000,3724.3052,N,12707.0871,E,1,11,0.9,39.6,M,19.9,M,,0000*7B
$GNGLL,3724.3052,N,12707.0871,E,081825.000,A,A*4A
$GNGSA,A,3,17,22,03,19,01,06,02,14,,,,,1.7,0.9,1.4*2B
$GNGSA,A,3,87,,,,,,,,,,,,1.7,0.9,1.4*29
$GNGSA,A,3,220,228,229,216,214,215,,,,,,,1.7,0.9,1.4*23
$GNGSA,A,3,59,58,,,,,,,,,,,1.7,0.9,1.4*27
$GNGST,081825.000,8.73,3.45,2.73,174.14,3.44,2.74,4.29*4D
$GNRMC,081825.000,A,3724.3052,N,12707.0871,E,12.26,70.57,270225,8.75,W,A*3C
$GNVTG,70.57,T,79.32,M,12.26,N,22.7,K,A*07
$GPGSV,3,1,11,17,67,345,44,22,66,261,42,03,55,072,41,19,40,309,41*7D
$GPGSV,3,2,11,01,31,051,40,06,28,256,38,02,20,059,35,14,59,207,35*7D
$GPGSV,3,3,11,04,05,123,,11,00,246,,09,00,152,*47
$GLGSV,3,1,10,87,46,308,40,77,46,285,38,86,48,025,,76,39,216,*69
$GLGSV,3,2,10,71,31,097,,70,22,045,,72,12,146,,78,07,335,*61
$GLGSV,3,3,10,85,06,067,,88,01,268,*63
$GAGSV,2,1,07,220,58,290,43,228,68,226,40,229,36,310,39,216,69,012,39*6E
$GAGSV,2,2,07,214,69,290,34,215,44,257,32,237,19,052,*65
$GQGSV,1,1,04,59,80,077,42,58,56,160,37,57,29,086,,60,26,163,*72
$GPADD1,0,238,83,-1*79
#HEAD,13224,1327181,1010111660,1084
$GNGGA,081826.000,3724.3063,N,12707.0912,E,1,11,0.9,39.4,M,19.9,M,,0000*7C
$GNGLL,3724.3063,N,12707.0912,E,081826.000,A,A*4F
$GNGSA,A,3,17,03,22,19,01,06,02,14,,,,,1.7,0.9,1.4*2B
$GNGSA,A,3,87,,,,,,,,,,,,1.7,0.9,1.4*29
$GNGSA,A,3,220,228,229,216,214,215,,,,,,,1.7,0.9,1.4*23
$GNGSA,A,3,59,58,,,,,,,,,,,1.7,0.9,1.4*27
$GNGST,081826.000,8.79,3.53,2.73,173.08,3.52,2.74,4.49*48
$GNRMC,081826.000,A,3724.3063,N,12707.0912,E,11.77,70.68,270225,8.75,W,A*32
$GNVTG,70.68,T,79.42,M,11.77,N,21.8,K,A*07
$GPGSV,3,1,11,17,67,345,44,22,66,261,42,03,55,072,41,19,40,309,41*7D
$GPGSV,3,2,11,01,31,051,40,06,28,256,38,02,20,059,35,14,59,207,35*7D
$GPGSV,3,3,11,04,05,123,,11,00,246,,09,00,152,*47
$GLGSV,3,1,10,87,46,308,40,77,46,285,38,86,48,025,,76,39,216,*69
$GLGSV,3,2,10,71,31,097,,70,22,045,,72,12,146,,78,07,335,*61
$GLGSV,3,3,10,85,06,067,,88,01,268,*63
$GAGSV,2,1,07,220,58,290,43,228,68,226,40,229,36,310,39,216,69,012,39*6E
$GAGSV,2,2,07,214,69,290,34,215,44,257,32,237,19,052,*65
$GQGSV,1,1,04,59,80,077,42,58,56,160,37,57,29,086,,60,26,163,*72
$GPADD1,0,228,80,-1*7B
#HEAD,13233,1328179,1003152847,1083
$GNGGA,081827.000,3724.3075,N,12707.0950,E,1,11,0.9,39.4,M,19.9,M,,0000*7C
$GNGLL,3724.3075,N,12707.0950,E,081827.000,A,A*4F
$GNGSA,A,3,17,03,22,19,01,06,02,14,,,,,1.7,0.9,1.4*2B
$GNGSA,A,3,87,,,,,,,,,,,,1.7,0.9,1.4*29
$GNGSA,A,3,220,228,229,216,214,215,,,,,,,1.7,0.9,1.4*23
$GNGSA,A,3,59,58,,,,,,,,,,,1.7,0.9,1.4*27
$GNGST,081827.000,9.00,2.81,2.20,169.63,2.79,2.22,3.44*49
$GNRMC,081827.000,A,3724.3075,N,12707.0950,E,11.63,69.40,270225,8.75,W,A*35
$GNVTG,69.40,T,78.15,M,11.63,N,21.5,K,A*0E
$GPGSV,3,1,11,17,67,345,44,22,66,261,42,03,55,072,41,19,40,309,41*7D
$GPGSV,3,2,11,01,31,051,40,06,28,256,38,02,20,059,35,14,59,207,35*7D
$GPGSV,3,3,11,04,05,123,,11,00,246,,09,00,152,*47
$GLGSV,3,1,10,87,46,308,40,77,46,285,38,86,48,025,,76,39,216,*69
$GLGSV,3,2,10,71,31,097,,70,22,045,,72,12,146,,78,07,335,*61
$GLGSV,3,3,10,85,06,067,,88,01,268,*63
$GAGSV,2,1,07,220,58,290,43,228,68,226,40,229,36,310,39,216,69,012,39*6E
$GAGSV,2,2,07,214,69,290,34,215,44,257,32,237,19,052,*65
$GQGSV,1,1,04,59,80,077,42,58,56,160,37,57,29,086,,60,26,163,*72
$GPADD1,0,222,89,0*54
#HEAD,13244,1329224,3153496088,1083
$GNGGA,081828.000,3724.3087,N,12707.0986,E,1,11,0.9,39.4,M,19.9,M,,0000*75
$GNGLL,3724.3087,N,12707.0986,E,081828.000,A,A*46
$GNGSA,A,3,17,03,22,19,01,06,02,14,,,,,1.7,0.9,1.4*2B
$GNGSA,A,3,87,,,,,,,,,,,,1.7,0.9,1.4*29
$GNGSA,A,3,220,228,229,216,214,215,,,,,,,1.7,0.9,1.4*23
$GNGSA,A,3,59,58,,,,,,,,,,,1.7,0.9,1.4*27
$GNGST,081828.000,8.63,3.07,2.60,168.42,3.05,2.62,3.53*43
$GNRMC,081828.000,A,3724.3087,N,12707.0986,E,10.53,68.80,270225,8.75,W,A*33
$GNVTG,68.80,T,77.55,M,10.53,N,19.5,K,A*01
$GPGSV,3,1,11,17,67,345,44,03,55,072,42,22,66,261,41,19,40,309,40*7C
$GPGSV,3,2,11,01,31,051,40,06,28,256,38,02,20,059,37,14,59,207,35*7F
$GPGSV,3,3,11,04,05,123,,11,00,246,,09,00,152,*47
$GLGSV,3,1,10,87,46,308,40,86,48,025,,77,46,285,,76,39,216,*62
$GLGSV,3,2,10,71,31,097,,70,22,045,,72,12,146,,78,07,335,*61
$GLGSV,3,3,10,85,06,067,,88,01,268,*63
$GAGSV,2,1,07,220,58,290,43,228,68,226,40,229,36,310,40,216,69,012,39*60
$GAGSV,2,2,07,214,69,290,34,215,44,257,33,237,19,052,*64
$GQGSV,1,1,04,59,80,077,42,58,56,160,38,60,26,163,24,57,29,086,*7B
$GPADD1,0,202,78,0*58
#HEAD,13253,1330175,961638746,1082
$GNGGA,081829.000,3724.3098,N,12707.1021,E,1,11,0.9,39.3,M,19.9,M,,0000*78
$GNGLL,3724.3098,N,12707.1021,E,081829.000,A,A*4C
$GNGSA,A,3,17,03,22,01,19,06,02,14,,,,,1.7,0.9,1.4*2B
$GNGSA,A,3,87,,,,,,,,,,,,1.7,0.9,1.4*29
$GNGSA,A,3,220,228,229,216,214,215,,,,,,,1.7,0.9,1.4*23
$GNGSA,A,3,59,58,,,,,,,,,,,1.7,0.9,1.4*27
$GNGST,081829.000,8.53,3.25,3.00,6.48,3.24,3.00,3.64*47
$GNRMC,081829.000,A,3724.3098,N,12707.1021,E,10.94,69.66,270225,8.75,W,A*3B
$GNVTG,69.66,T,78.40,M,10.94,N,20.3,K,A*04
$GPGSV,3,1,11,17,67,345,44,03,55,072,42,22,66,261,41,19,40,309,40*7C
$GPGSV,3,2,11,01,31,051,40,06,28,256,38,02,20,059,37,14,59,207,35*7F
$GPGSV,3,3,11,04,05,123,,11,00,246,,09,00,152,*47
$GLGSV,3,1,10,87,46,308,40,86,48,025,,77,46,285,,76,39,216,*62
$GLGSV,3,2,10,71,31,097,,70,22,045,,72,12,146,,78,07,335,*61
$GLGSV,3,3,10,85,06,067,,88,01,268,*63
$GAGSV,2,1,07,220,58,290,43,228,68,226,40,229,36,310,40,216,69,012,39*60
$GAGSV,2,2,07,214,69,290,34,215,44,257,33,237,19,052,*64
$GQGSV,1,1,04,59,80,077,42,58,56,160,38,60,26,163,24,57,29,086,*7B
$GPADD1,0,211,76,-1*78
#HEAD,13263,1331175,3145250459,1080
$GNGGA,081830.000,3724.3108,N,12707.1054,E,1,11,0.9,39.2,M,19.9,M,,0000*7B
$GNGLL,3724.3108,N,12707.1054,E,081830.000,A,A*4E
$GNGSA,A,3,17,03,22,01,19,06,14,02,,,,,1.7,0.9,1.4*2B
$GNGSA,A,3,87,,,,,,,,,,,,1.7,0.9,1.4*29
$GNGSA,A,3,220,228,229,216,214,215,,,,,,,1.7,0.9,1.4*23
$GNGSA,A,3,59,58,,,,,,,,,,,1.7,0.9,1.4*27
$GNGST,081830.000,9.76,3.57,3.30,7.54,3.56,3.31,4.04*45
$GNRMC,081830.000,A,3724.3108,N,12707.1054,E,9.87,69.60,270225,8.75,W,A*05
$GNVTG,69.60,T,78.34,M,9.87,N,18.3,K,A*30
$GPGSV,3,1,11,17,67,345,44,03,55,072,42,22,66,261,41,19,40,309,40*7C
$GPGSV,3,2,11,01,31,051,40,06,28,256,38,02,20,059,37,14,59,207,35*7F
$GPGSV,3,3,11,04,05,123,,11,00,246,,09,00,152,*47
$GLGSV,3,1,10,87,46,308,40,86,48,025,,77,46,285,,76,39,216,*62
$GLGSV,3,2,10,71,31,097,,70,22,045,,72,12,146,,78,07,335,*61
$GLGSV,3,3,10,85,06,067,,88,01,268,*63
$GAGSV,2,1,07,220,58,290,43,228,68,226,40,229,36,310,40,216,69,012,39*60
$GAGSV,2,2,07,214,69,290,34,215,44,257,33,237,19,052,*64
$GQGSV,1,1,04,59,80,077,42,58,56,160,38,60,26,163,24,57,29,086,*7B
$GPADD1,0,190,70,-1*74
#HEAD,13273,1332174,1006966108,1081
$GNGGA,081831.000,3724.3118,N,12707.1086,E,1,11,0.9,39.3,M,19.9,M,,0000*75
$GNGLL,3724.3118,N,12707.1086,E,081831.000,A,A*41
$GNGSA,A,3,17,03,22,01,19,06,14,02,,,,,1.7,0.9,1.4*2B
$GNGSA,A,3,87,,,,,,,,,,,,1.7,0.9,1.4*29
$GNGSA,A,3,220,228,229,216,214,215,,,,,,,1.7,0.9,1.4*23
$GNGSA,A,3,59,58,,,,,,,,,,,1.7,0.9,1.4*27
$GNGST,081831.000,9.78,3.41,3.22,175.86,3.41,3.23,3.90*4A
$GNRMC,081831.000,A,3724.3118,N,12707.1086,E,9.82,69.85,270225,8.75,W,A*04
$GNVTG,69.85,T,78.59,M,9.82,N,18.2,K,A*34
$GPGSV,3,1,11,17,67,345,44,03,55,072,42,22,66,261,41,19,40,309,40*7C
$GPGSV,3,2,11,01,31,051,40,06,28,256,38,02,20,059,37,14,59,207,35*7F
$GPGSV,3,3,11,04,05,123,,11,00,246,,09,00,152,*47
$GLGSV,3,1,10,87,46,308,40,86,48,025,,77,46,285,,76,39,216,*62
$GLGSV,3,2,10,71,31,097,,70,22,045,,72,12,146,,78,07,335,*61
$GLGSV,3,3,10,85,06,067,,88,01,268,*63
$GAGSV,2,1,07,220,58,290,43,228,68,226,40,229,36,310,40,216,69,012,39*60
$GAGSV,2,2,07,214,69,290,34,215,44,257,33,237,19,052,*64
$GQGSV,1,1,04,59,80,077,42,58,56,160,38,60,26,163,24,57,29,086,*7B
$GPADD1,0,189,69,0*58
#HEAD,13283,1333175,3144678541,1084
$GNGGA,081832.000,3724.3128,N,12707.1120,E,1,11,0.9,39.3,M,19.9,M,,0000*78
$GNGLL,3724.3128,N,12707.1120,E,081832.000,A,A*4C
$GNGSA,A,3,17,22,03,01,19,06,14,02,,,,,1.7,0.9,1.4*2B
$GNGSA,A,3,87,,,,,,,,,,,,1.7,0.9,1.4*29
$GNGSA,A,3,220,228,229,216,214,215,,,,,,,1.7,0.9,1.4*23
$GNGSA,A,3,59,58,,,,,,,,,,,1.7,0.9,1.4*27
$GNGST,081832.000,10.07,3.47,3.27,156.45,3.44,3.30,3.95*76
$GNRMC,081832.000,A,3724.3128,N,12707.1120,E,10.30,69.31,270225,8.75,W,A*37
$GNVTG,69.31,T,78.06,M,10.30,N,19.1,K,A*02
$GPGSV,3,1,11,17,67,345,44,03,55,072,42,22,66,261,41,19,40,309,40*7C
$GPGSV,3,2,11,01,31,051,40,06,28,256,38,02,20,059,37,14,59,207,35*7F
$GPGSV,3,3,11,04,05,123,,11,00,246,,09,00,152,*47
$GLGSV,3,1,10,87,46,308,40,86,48,025,,77,46,285,,76,39,216,*62
$GLGSV,3,2,10,71,31,097,,70,22,045,,72,12,146,,78,07,335,*61
$GLGSV,3,3,10,85,06,067,,88,01,268,*63
$GAGSV,2,1,07,220,58,290,43,228,68,226,40,229,36,310,40,216,69,012,39*60
$GAGSV,2,2,07,214,69,290,34,215,44,257,33,237,19,052,*64
$GQGSV,1,1,04,59,80,077,42,58,56,160,38,60,26,163,24,57,29,086,*7B
$GPADD1,0,198,75,0*55
#HEAD,13294,1334222,3139245316,1084
$GNGGA,081833.000,3724.3139,N,12707.1155,E,1,11,0.9,39.3,M,19.9,M,,0000*7B
$GNGLL,3724.3139,N,12707.1155,E,081833.000,A,A*4F
$GNGSA,A,3,17,03,22,19,06,02,14,01,,,,,1.7,0.9,1.4*2B
$GNGSA,A,3,87,,,,,,,,,,,,1.7,0.9,1.4*29
$GNGSA,A,3,220,228,229,216,214,215,,,,,,,1.7,0.9,1.4*23
$GNGSA,A,3,59,58,,,,,,,,,,,1.7,0.9,1.4*27
$GNGST,081833.000,10.24,3.48,3.27,154.79,3.44,3.31,4.00*7E
$GNRMC,081833.000,A,3724.3139,N,12707.1155,E,11.32,69.47,270225,8.75,W,A*36
$GNVTG,69.47,T,78.22,M,11.32,N,21.0,K,A*0C
$GPGSV,3,1,11,17,67,345,44,03,55,072,42,22,66,261,42,19,40,309,39*71
$GPGSV,3,2,11,06,28,256,38,02,20,059,28,14,59,207,35,01,31,051,30*76
$GPGSV,3,3,11,04,05,123,,11,00,246,,09,00,152,*47
$GLGSV,3,1,10,87,46,308,41,77,46,285,38,86,48,025,,76,39,216,*68
$GLGSV,3,2,10,71,31,097,,70,22,045,,72,12,146,,78,07,335,*61
$GLGSV,3,3,10,85,06,067,,88,01,268,*63
$GAGSV,2,1,07,220,58,290,43,228,68,226,40,229,36,310,39,216,69,012,39*6E
$GAGSV,2,2,07,214,69,290,34,215,44,257,33,237,19,052,*64
$GQGSV,1,1,04,59,80,077,43,58,56,160,39,57,29,086,,60,26,163,*7D
$GPADD1,0,218,81,0*55
#HEAD,13303,1335173,3146633066,1085
$GNGGA,081834.000,3724.3153,N,12707.1192,E,1,11,0.9,39.3,M,19.9,M,,0000*7B
$GNGLL,3724.3153,N,12707.1192,E,081834.000,A,A*4F
$GNGSA,A,3,17,22,03,19,06,02,14,01,,,,,1.7,0.9,1.4*2B
$GNGSA,A,3,87,,,,,,,,,,,,1.7,0.9,1.4*29
$GNGSA,A,3,220,228,229,216,214,215,,,,,,,1.7,0.9,1.4*23
$GNGSA,A,3,59,58,,,,,,,,,,,1.7,0.9,1.4*27
$GNGST,081834.000,10.35,3.43,3.25,154.58,3.40,3.28,3.95*74
$GNRMC,081834.000,A,3724.3153,N,12707.1192,E,11.86,64.87,270225,8.75,W,A*38
$GNVTG,64.87,T,73.61,M,11.86,N,22.0,K,A*0D
$GPGSV,3,1,11,17,67,345,44,03,55,072,42,22,66,261,42,19,40,309,39*71
$GPGSV,3,2,11,06,28,256,38,02,20,059,28,14,59,207,35,01,31,051,30*76
$GPGSV,3,3,11,04,05,123,,11,00,246,,09,00,152,*47
$GLGSV,3,1,10,87,46,308,41,77,46,285,38,86,48,025,,76,39,216,*68
$GLGSV,3,2,10,71,31,097,,70,22,045,,72,12,146,,78,07,335,*61
$GLGSV,3,3,10,85,06,067,,88,01,268,*63
$GAGSV,2,1,07,220,58,290,43,228,68,226,40,229,36,310,39,216,69,012,39*6E
$GAGSV,2,2,07,214,69,290,34,215,44,257,33,237,19,052,*64
$GQGSV,1,1,04,59,80,077,43,58,56,160,39,57,29,086,,60,26,163,*7D
$GPADD1,0,217,110,0*63
#HEAD,13313,1336169,3165161782,1084
$GNGGA,081835.000,3724.3168,N,12707.1236,E,1,11,0.9,39.3,M,19.9,M,,0000*7F
$GNGLL,3724.3168,N,12707.1236,E,081835.000,A,A*4B
$GNGSA,A,3,17,22,01,19,06,02,14,03,,,,,1.7,0.9,1.4*2B
$GNGSA,A,3,87,,,,,,,,,,,,1.7,0.9,1.4*29
$GNGSA,A,3,220,228,229,214,215,216,,,,,,,1.7,0.9,1.4*23
$GNGSA,A,3,59,58,,,,,,,,,,,1.7,0.9,1.4*27
$GNGST,081835.000,9.80,3.68,3.44,135.44,3.56,3.56,4.12*41
$GNRMC,081835.000,A,3724.3168,N,12707.1236,E,13.73,67.08,270225,8.75,W,A*30
$GNVTG,67.08,T,75.83,M,13.73,N,25.4,K,A*08
$GPGSV,3,1,11,17,67,345,44,03,55,072,42,22,66,261,42,19,40,309,39*71
$GPGSV,3,2,11,06,28,256,38,02,20,059,28,14,59,207,35,01,31,051,30*76
$GPGSV,3,3,11,04,05,123,,11,00,246,,09,00,152,*47
$GLGSV,3,1,10,87,46,308,41,77,46,285,38,86,48,025,,76,39,216,*68
$GLGSV,3,2,10,71,31,097,,70,22,045,,72,12,146,,78,07,335,*61
$GLGSV,3,3,10,85,06,067,,88,01,268,*63
$GAGSV,2,1,07,220,58,290,43,228,68,226,40,229,36,310,39,216,69,012,39*6E
$GAGSV,2,2,07,214,69,290,34,215,44,257,33,237,19,052,*64
$GQGSV,1,1,04,59,80,077,43,58,56,160,39,57,29,086,,60,26,163,*7D
$GPADD1,0,262,105,0*65
#HEAD,13323,1337170,3170845222,1086
$GNGGA,081836.000,3724.3183,N,12707.1287,E,1,11,0.9,39.0,M,19.9,M,,0000*70
$GNGLL,3724.3183,N,12707.1287,E,081836.000,A,A*47
$GNGSA,A,3,22,17,01,03,19,06,02,14,,,,,1.7,0.9,1.4*2B
$GNGSA,A,3,87,,,,,,,,,,,,1.7,0.9,1.4*29
$GNGSA,A,3,216,229,214,215,220,228,,,,,,,1.7,0.9,1.4*23
$GNGSA,A,3,59,58,,,,,,,,,,,1.7,0.9,1.4*27
$GNGST,081836.000,10.60,4.07,3.85,131.95,3.95,3.98,4.50*74
$GNRMC,081836.000,A,3724.3183,N,12707.1287,E,15.47,70.47,270225,8.75,W,A*30
$GNVTG,70.47,T,79.22,M,15.47,N,28.6,K,A*0C
$GPGSV,3,1,11,17,67,345,44,03,55,072,42,22,66,261,42,19,40,309,39*71
$GPGSV,3,2,11,06,28,256,38,02,20,059,28,14,59,207,35,01,31,051,30*76
$GPGSV,3,3,11,04,05,123,,11,00,246,,09,00,152,*47
$GLGSV,3,1,10,87,46,308,41,77,46,285,38,86,48,025,,76,39,216,*68
$GLGSV,3,2,10,71,31,097,,70,22,045,,72,12,146,,78,07,335,*61
$GLGSV,3,3,10,85,06,067,,88,01,268,*63
$GAGSV,2,1,07,220,58,290,43,228,68,226,40,229,36,310,39,216,69,012,39*6E
$GAGSV,2,2,07,214,69,290,34,215,44,257,33,237,19,052,*64
$GQGSV,1,1,04,59,80,077,43,58,56,160,39,57,29,086,,60,26,163,*7D
$GPADD1,0,302,100,-3*49
#HEAD,13333,1338172,3163481772,1086
$GNGGA,081837.000,3724.3198,N,12707.1344,E,1,11,0.9,39.0,M,19.9,M,,0000*75
$GNGLL,3724.3198,N,12707.1344,E,081837.000,A,A*42
$GNGSA,A,3,17,03,22,01,06,14,19,02,,,,,1.7,0.9,1.4*2B
$GNGSA,A,3,87,,,,,,,,,,,,1.7,0.9,1.4*29
$GNGSA,A,3,220,216,228,214,215,229,,,,,,,1.7,0.9,1.4*23
$GNGSA,A,3,59,58,,,,,,,,,,,1.7,0.9,1.4*27
$GNGST,081837.000,14.20,4.17,3.70,151.98,4.07,3.81,4.34*73
$GNRMC,081837.000,A,3724.3198,N,12707.1344,E,16.30,71.89,270225,8.75,W,A*35
$GNVTG,71.89,T,80.64,M,16.30,N,30.2,K,A*05
$GPGSV,3,1,11,17,67,345,44,03,55,072,42,22,66,261,42,19,40,309,39*71
$GPGSV,3,2,11,06,28,256,38,02,20,059,28,14,59,207,35,01,31,051,30*76
$GPGSV,3,3,11,04,05,123,,11,00,246,,09,00,152,*47
$GLGSV,3,1,10,87,46,308,41,77,46,285,38,86,48,025,,76,39,216,*68
$GLGSV,3,2,10,71,31,097,,70,22,045,,72,12,146,,78,07,335,*61
$GLGSV,3,3,10,85,06,067,,88,01,268,*63
$GAGSV,2,1,07,220,58,290,43,228,68,226,40,229,36,310,39,216,69,012,39*6E
$GAGSV,2,2,07,214,69,290,34,215,44,257,33,237,19,052,*64
$GQGSV,1,1,04,59,80,077,43,58,56,160,39,57,29,086,,60,26,163,*7D
$GPADD1,0,318,104,-1*44
#HEAD,13344,1339217,3172424426,1082
$GNGGA,081838.000,3724.3212,N,12707.1397,E,1,10,1.0,39.2,M,19.9,M,,0000*7E
$GNGLL,3724.3212,N,12707.1397,E,081838.000,A,A*42
$GNGSA,A,3,17,03,22,01,19,14,06,,,,,,2.0,1.0,1.7*26
$GNGSA,A,3,87,,,,,,,,,,,,2.0,1.0,1.7*26
$GNGSA,A,3,220,229,216,228,214,215,,,,,,,2.0,1.0,1.7*2C
$GNGSA,A,3,59,58,,,,,,,,,,,2.0,1.0,1.7*28
$GNGST,081838.000,11.94,4.58,4.00,158.03,4.51,4.09,4.90*7C
$GNRMC,081838.000,A,3724.3212,N,12707.1397,E,15.25,72.79,270225,8.75,W,A*3E
$GNVTG,72.79,T,81.53,M,15.25,N,28.2,K,A*02
$GPGSV,3,1,11,17,67,345,45,03,55,072,41,22,66,261,41,01,31,051,40*7F
$GPGSV,3,2,11,19,40,309,34,14,59,207,34,06,28,256,32,02,20,059,26*76
$GPGSV,3,3,11,04,05,123,,11,00,246,,09,00,152,*47
$GLGSV,3,1,10,87,46,308,42,77,46,285,35,86,48,025,,76,39,216,*66
$GLGSV,3,2,10,71,31,097,,70,22,045,,72,12,146,,78,07,335,*61
$GLGSV,3,3,10,85,06,067,,88,01,268,*63
$GAGSV,2,1,07,220,58,290,43,229,36,310,35,216,69,012,39,228,68,226,38*6D
$GAGSV,2,2,07,214,69,290,34,215,44,257,29,237,19,052,*6F
$GQGSV,1,1,04,59,80,077,42,58,56,160,37,57,29,086,,60,26,163,*72
$GPADD1,0,299,93,0*5F
#HEAD,13353,1340170,3173782732,1084
$GNGGA,081839.000,3724.3225,N,12707.1446,E,1,11,0.9,39.2,M,19.9,M,,0000*79
$GNGLL,3724.3225,N,12707.1446,E,081839.000,A,A*4C
$GNGSA,A,3,17,03,22,01,19,14,06,02,,,,,1.7,0.9,1.4*2B
$GNGSA,A,3,87,,,,,,,,,,,,1.7,0.9,1.4*29
$GNGSA,A,3,220,229,216,228,214,215,,,,,,,1.7,0.9,1.4*23
$GNGSA,A,3,59,58,,,,,,,,,,,1.7,0.9,1.4*27
$GNGST,081839.000,12.28,3.97,3.53,161.45,3.92,3.57,4.49*74
$GNRMC,081839.000,A,3724.3225,N,12707.1446,E,13.97,74.12,270225,8.75,W,A*34
$GNVTG,74.12,T,82.87,M,13.97,N,25.9,K,A*0A
$GPGSV,3,1,11,17,67,345,45,03,55,072,41,22,66,261,41,01,31,051,40*7F
$GPGSV,3,2,11,19,40,309,34,14,59,207,34,06,28,256,32,02,20,059,26*76
$GPGSV,3,3,11,04,05,123,,11,00,246,,09,00,152,*47
$GLGSV,3,1,10,87,46,308,42,77,46,285,35,86,48,025,,76,39,216,*66
$GLGSV,3,2,10,71,31,097,,70,22,045,,72,12,146,,78,07,335,*61
$GLGSV,3,3,10,85,06,067,,88,01,268,*63
$GAGSV,2,1,07,220,58,290,43,229,36,310,35,216,69,012,39,228,68,226,38*6D
$GAGSV,2,2,07,214,69,290,34,215,44,257,29,237,19,052,*6F
$GQGSV,1,1,04,59,80,077,42,58,56,160,37,57,29,086,,60,26,163,*72
$GPADD1,0,276,78,0*5B
#HEAD,13363,1341172,3180223243,1084
$GNGGA,081840.000,3724.3234,N,12707.1491,E,1,11,0.9,39.2,M,19.9,M,,0000*7D
$GNGLL,3724.3234,N,12707.1491,E,081840.000,A,A*48
$GNGSA,A,3,17,03,22,01,06,19,14,02,,,,,1.7,0.9,1.4*2B
$GNGSA,A,3,86,,,,,,,,,,,,1.7,0.9,1.4*28
$GNGSA,A,3,220,229,216,228,214,215,,,,,,,1.7,0.9,1.4*23
$GNGSA,A,3,59,58,,,,,,,,,,,1.7,0.9,1.4*27
$GNGST,081840.000,10.92,3.82,3.45,161.89,3.78,3.49,4.55*7C
$GNRMC,081840.000,A,3724.3234,N,12707.1491,E,12.73,77.15,270225,8.75,W,A*3F
$GNVTG,77.15,T,85.89,M,12.73,N,23.6,K,A*05
$GPGSV,3,1,11,17,67,345,45,03,55,072,41,22,66,261,41,01,31,051,40*7F
$GPGSV,3,2,11,19,40,309,34,14,59,207,34,06,28,256,32,02,20,059,26*76
$GPGSV,3,3,11,04,05,123,,11,00,246,,09,00,152,*47
$GLGSV,3,1,10,87,46,308,42,77,46,285,35,86,48,025,,76,39,216,*66
$GLGSV,3,2,10,71,31,097,,70,22,045,,72,12,146,,78,07,335,*61
$GLGSV,3,3,10,85,06,067,,88,01,268,*63
$GAGSV,2,1,07,220,58,290,43,229,36,310,35,216,69,012,39,228,68,226,38*6D
$GAGSV,2,2,07,214,69,290,34,215,44,257,29,237,19,052,*6F
$GQGSV,1,1,04,59,80,077,42,58,56,160,37,57,29,086,,60,26,163,*72
$GPADD1,0,255,57,0*57
#HEAD,13373,1342168,3179544090,1083
$GNGGA,081841.000,3724.3239,N,12707.1535,E,1,11,1.0,39.3,M,19.9,M,,0000*77
$GNGLL,3724.3239,N,12707.1535,E,081841.000,A,A*4B
$GNGSA,A,3,17,19,03,22,01,06,14,,,,,,2.0,1.0,1.7*26
$GNGSA,A,3,86,87,,,,,,,,,,,2.0,1.0,1.7*28
$GNGSA,A,3,220,214,229,216,228,215,,,,,,,2.0,1.0,1.7*2C
$GNGSA,A,3,59,58,,,,,,,,,,,2.0,1.0,1.7*28
$GNGST,081841.000,7.91,3.85,3.48,160.85,3.81,3.52,4.85*4E
$GNRMC,081841.000,A,3724.3239,N,12707.1535,E,12.71,81.40,270225,8.75,W,A*37
$GNVTG,81.40,T,90.15,M,12.71,N,23.5,K,A*0C
$GPGSV,3,1,11,17,67,345,45,03,55,072,41,22,66,261,41,01,31,051,40*7F
$GPGSV,3,2,11,19,40,309,34,14,59,207,34,06,28,256,32,02,20,059,26*76
$GPGSV,3,3,11,04,05,123,,11,00,246,,09,00,152,*47
$GLGSV,3,1,10,87,46,308,42,77,46,285,35,86,48,025,,76,39,216,*66
$GLGSV,3,2,10,71,31,097,,70,22,045,,72,12,146,,78,07,335,*61
$GLGSV,3,3,10,85,06,067,,88,01,268,*63
$GAGSV,2,1,07,220,58,290,43,229,36,310,35,216,69,012,39,228,68,226,38*6D
$GAGSV,2,2,07,214,69,290,34,215,44,257,29,237,19,052,*6F
$GQGSV,1,1,04,59,80,077,42,58,56,160,37,57,29,086,,60,26,163,*72
$GPADD1,0,258,38,0*53
#HEAD,13384,1343177,3164411140,1083
$GNGGA,081842.000,3724.3242,N,12707.1578,E,1,11,1.0,39.4,M,19.9,M,,0000*76
$GNGLL,3724.3242,N,12707.1578,E,081842.000,A,A*4D
$GNGSA,A,3,17,19,03,22,06,14,01,,,,,,2.0,1.0,1.7*26
$GNGSA,A,3,86,87,,,,,,,,,,,2.0,1.0,1.7*28
$GNGSA,A,3,220,214,229,216,228,215,,,,,,,2.0,1.0,1.7*2C
$GNGSA,A,3,59,58,,,,,,,,,,,2.0,1.0,1.7*28
$GNGST,081842.000,8.32,3.65,3.28,166.03,3.63,3.30,4.84*42
$GNRMC,081842.000,A,3724.3242,N,12707.1578,E,12.83,83.91,270225,8.75,W,A*32
$GNVTG,83.91,T,92.66,M,12.83,N,23.8,K,A*04
$GPGSV,3,1,11,17,67,345,45,03,55,072,41,22,66,261,41,01,31,051,40*7F
$GPGSV,3,2,11,19,40,309,34,14,59,207,34,06,28,256,32,02,20,059,26*76
$GPGSV,3,3,11,04,05,123,,11,00,246,,09,00,152,*47
$GLGSV,3,1,10,87,46,308,42,77,46,285,35,86,48,025,,76,39,216,*66
$GLGSV,3,2,10,71,31,097,,70,22,045,,72,12,146,,78,07,335,*61
$GLGSV,3,3,10,85,06,067,,88,01,268,*63
$GAGSV,2,1,07,220,58,290,43,229,36,310,35,216,69,012,39,228,68,226,38*6D
$GAGSV,2,2,07,214,69,290,34,215,44,257,29,237,19,052,*6F
$GQGSV,1,1,04,59,80,077,42,58,56,160,37,57,29,086,,60,26,163,*72
$GPADD1,0,262,28,0*5B
#HEAD,13394,1344224,3172746130,1083
$GNGGA,081843.000,3724.3245,N,12707.1622,E,1,11,1.0,39.6,M,19.9,M,,0000*7E
$GNGLL,3724.3245,N,12707.1622,E,081843.000,A,A*47
$GNGSA,A,3,17,19,03,22,06,14,01,,,,,,2.0,1.0,1.7*26
$GNGSA,A,3,86,87,,,,,,,,,,,2.0,1.0,1.7*28
$GNGSA,A,3,220,214,229,216,228,215,,,,,,,2.0,1.0,1.7*2C
$GNGSA,A,3,59,58,,,,,,,,,,,2.0,1.0,1.7*28
$GNGST,081843.000,9.03,3.30,2.98,166.99,3.29,2.99,4.56*4A
$GNRMC,081843.000,A,3724.3245,N,12707.1622,E,12.72,85.28,270225,8.75,W,A*32
$GNVTG,85.28,T,94.02,M,12.72,N,23.6,K,A*04
$GPGSV,3,1,11,17,67,345,45,19,40,309,44,03,55,072,42,22,66,261,41*79
$GPGSV,3,2,11,06,28,256,39,14,59,207,36,01,31,051,29,02,20,059,*76
$GPGSV,3,3,11,04,05,123,,11,00,246,,09,00,152,*47
$GLGSV,3,1,10,86,48,025,43,87,46,308,42,77,46,285,37,76,39,216,*63
$GLGSV,3,2,10,71,31,097,,70,22,045,,72,12,146,,78,07,335,*61
$GLGSV,3,3,10,85,06,067,,88,01,268,*63
$GAGSV,2,1,07,220,58,290,42,214,69,290,41,229,36,310,40,216,69,012,40*6D
$GAGSV,2,2,07,228,68,226,37,215,44,257,33,237,19,052,*64
$GQGSV,1,1,04,59,80,077,42,58,56,160,39,57,29,086,,60,26,163,*7C
$GPADD1,0,260,22,0*53
#HEAD,13403,1345164,3174229544,1081
$GNGGA,081844.000,3724.3246,N,12707.1667,E,1,10,1.0,39.8,M,19.9,M,,0000*74
$GNGLL,3724.3246,N,12707.1667,E,081844.000,A,A*42
$GNGSA,A,3,17,19,03,22,06,14,01,,,,,,2.0,1.0,1.7*26
$GNGSA,A,3,86,,,,,,,,,,,,2.0,1.0,1.7*27
$GNGSA,A,3,220,214,229,216,228,215,,,,,,,2.0,1.0,1.7*2C
$GNGSA,A,3,59,58,,,,,,,,,,,2.0,1.0,1.7*28
$GNGST,081844.000,9.45,3.18,2.92,166.78,3.17,2.94,4.54*42
$GNRMC,081844.000,A,3724.3246,N,12707.1667,E,12.86,86.62,270225,8.75,W,A*31
$GNVTG,86.62,T,95.36,M,12.86,N,23.8,K,A*0A
$GPGSV,3,1,11,17,67,345,45,19,40,309,44,03,55,072,42,22,66,261,41*79
$GPGSV,3,2,11,06,28,256,39,14,59,207,36,01,31,051,29,02,20,059,*76
$GPGSV,3,3,11,04,05,123,,11,00,246,,09,00,152,*47
$GLGSV,3,1,10,86,48,025,43,87,46,308,42,77,46,285,37,76,39,216,*63
$GLGSV,3,2,10,71,31,097,,70,22,045,,72,12,146,,78,07,335,*61
$GLGSV,3,3,10,85,06,067,,88,01,268,*63
$GAGSV,2,1,07,220,58,290,42,214,69,290,41,229,36,310,40,216,69,012,40*6D
$GAGSV,2,2,07,228,68,226,37,215,44,257,33,237,19,052,*64
$GQGSV,1,1,04,59,80,077,42,58,56,160,39,57,29,086,,60,26,163,*7C
$GPADD1,0,264,15,0*53
#HEAD,13413,1346166,3151351394,1081
$GNGGA,081845.000,3724.3247,N,12707.1710,E,1,10,1.0,40.0,M,19.9,M,,0000*73
$GNGLL,3724.3247,N,12707.1710,E,081845.000,A,A*43
$GNGSA,A,3,17,19,03,22,06,14,01,,,,,,2.0,1.0,1.7*26
$GNGSA,A,3,86,,,,,,,,,,,,2.0,1.0,1.7*27
$GNGSA,A,3,220,214,229,216,228,215,,,,,,,2.0,1.0,1.7*2C
$GNGSA,A,3,59,58,,,,,,,,,,,2.0,1.0,1.7*28
$GNGST,081845.000,11.47,3.24,3.00,163.29,3.22,3.02,4.76*74
$GNRMC,081845.000,A,3724.3247,N,12707.1710,E,12.87,89.21,270225,8.75,W,A*39
$GNVTG,89.21,T,97.95,M,12.87,N,23.8,K,A*08
$GPGSV,3,1,11,17,67,345,45,19,40,309,44,03,55,072,42,22,66,261,41*79
$GPGSV,3,2,11,06,28,256,39,14,59,207,36,01,31,051,29,02,20,059,*76
$GPGSV,3,3,11,04,05,123,,11,00,246,,09,00,152,*47
$GLGSV,3,1,10,86,48,025,43,87,46,308,42,77,46,285,37,76,39,216,*63
$GLGSV,3,2,10,71,31,097,,70,22,045,,72,12,146,,78,07,335,*61
$GLGSV,3,3,10,85,06,067,,88,01,268,*63
$GAGSV,2,1,07,220,58,290,42,214,69,290,41,229,36,310,40,216,69,012,40*6D
$GAGSV,2,2,07,228,68,226,37,215,44,257,33,237,19,052,*64
$GQGSV,1,1,04,59,80,077,42,58,56,160,39,57,29,086,,60,26,163,*7C
$GPADD1,0,264,3,1*65
#HEAD,13423,1347172,1024976523,1083
$GNGGA,081846.000,3724.3247,N,12707.1754,E,1,11,0.9,40.4,M,19.9,M,,0000*7D
$GNGLL,3724.3247,N,12707.1754,E,081846.000,A,A*40
$GNGSA,A,3,17,03,19,22,06,14,01,02,,,,,1.7,0.9,1.4*2B
$GNGSA,A,3,86,,,,,,,,,,,,1.7,0.9,1.4*28
$GNGSA,A,3,220,214,229,216,228,215,,,,,,,1.7,0.9,1.4*23
$GNGSA,A,3,59,58,,,,,,,,,,,1.7,0.9,1.4*27
$GNGST,081846.000,11.49,3.08,2.81,162.07,3.06,2.84,4.66*7A
$GNRMC,081846.000,A,3724.3247,N,12707.1754,E,13.03,89.83,270225,8.75,W,A*3F
$GNVTG,89.83,T,98.57,M,13.03,N,24.1,K,A*02
$GPGSV,3,1,11,17,67,345,45,19,40,309,44,03,55,072,42,22,66,261,41*79
$GPGSV,3,2,11,06,28,256,39,14,59,207,36,01,31,051,29,02,20,059,*76
$GPGSV,3,3,11,04,05,123,,11,00,246,,09,00,152,*47
$GLGSV,3,1,10,86,48,025,43,87,46,308,42,77,46,285,37,76,39,216,*63
$GLGSV,3,2,10,71,31,097,,70,22,045,,72,12,146,,78,07,335,*61
$GLGSV,3,3,10,85,06,067,,88,01,268,*63
$GAGSV,2,1,07,220,58,290,42,214,69,290,41,229,36,310,40,216,69,012,40*6D
$GAGSV,2,2,07,228,68,226,37,215,44,257,33,237,19,052,*64
$GQGSV,1,1,04,59,80,077,42,58,56,160,39,57,29,086,,60,26,163,*7C
$GPADD1,0,268,1,2*68
#HEAD,13433,1348171,1023546727,1084
$GNGGA,081847.000,3724.3248,N,12707.1798,E,1,11,0.9,40.6,M,19.9,M,,0000*71
$GNGLL,3724.3248,N,12707.1798,E,081847.000,A,A*4E
$GNGSA,A,3,17,19,03,22,06,14,01,02,,,,,1.7,0.9,1.4*2B
$GNGSA,A,3,87,,,,,,,,,,,,1.7,0.9,1.4*29
$GNGSA,A,3,220,214,229,216,228,215,,,,,,,1.7,0.9,1.4*23
$GNGSA,A,3,59,58,,,,,,,,,,,1.7,0.9,1.4*27
$GNGST,081847.000,11.21,3.05,2.76,164.96,3.03,2.78,4.75*7A
$GNRMC,081847.000,A,3724.3248,N,12707.1798,E,12.73,86.57,270225,8.75,W,A*31
$GNVTG,86.57,T,95.32,M,12.73,N,23.6,K,A*0C
$GPGSV,3,1,11,17,67,345,45,19,40,309,44,03,55,072,42,22,66,261,41*79
$GPGSV,3,2,11,06,28,256,39,14,59,207,36,01,31,051,29,02,20,059,*76
$GPGSV,3,3,11,04,05,123,,11,00,246,,09,00,152,*47
$GLGSV,3,1,10,86,48,025,43,87,46,308,42,77,46,285,37,76,39,216,*63
$GLGSV,3,2,10,71,31,097,,70,22,045,,72,12,146,,78,07,335,*61
$GLGSV,3,3,10,85,06,067,,88,01,268,*63
$GAGSV,2,1,07,220,58,290,42,214,69,290,41,229,36,310,40,216,69,012,40*6D
$GAGSV,2,2,07,228,68,226,37,215,44,257,33,237,19,052,*64
$GQGSV,1,1,04,59,80,077,42,58,56,160,39,57,29,086,,60,26,163,*7C
$GPADD1,0,261,17,1*55
#HEAD,13444,1349214,3160597879,1084
$GNGGA,081848.000,3724.3250,N,12707.1841,E,1,11,0.9,40.9,M,19.9,M,,0000*73
$GNGLL,3724.3250,N,12707.1841,E,081848.000,A,A*43
$GNGSA,A,3,17,19,03,22,06,14,01,02,,,,,1.7,0.9,1.4*2B
$GNGSA,A,3,87,,,,,,,,,,,,1.7,0.9,1.4*29
$GNGSA,A,3,220,214,229,216,228,215,,,,,,,1.7,0.9,1.4*23
$GNGSA,A,3,59,58,,,,,,,,,,,1.7,0.9,1.4*27
$GNGST,081848.000,11.21,2.98,2.69,169.88,2.97,2.70,4.76*7B
$GNRMC,081848.000,A,3724.3250,N,12707.1841,E,12.19,85.11,270225,8.75,W,A*31
$GNVTG,85.11,T,93.86,M,12.19,N,22.6,K,A*09
$GPGSV,3,1,11,17,67,345,44,19,40,309,42,03,55,072,42,22,66,261,40*7F
$GPGSV,3,2,11,06,28,256,38,14,59,207,36,01,31,051,27,02,20,059,24*7F
$GPGSV,3,3,11,04,05,123,,11,00,246,,09,00,152,*47
$GLGSV,3,1,10,87,46,308,42,77,46,285,37,86,48,025,,76,39,216,*64
$GLGSV,3,2,10,71,31,097,,70,22,045,,72,12,146,,78,07,335,*61
$GLGSV,3,3,10,85,06,067,,88,01,268,*63
$GAGSV,2,1,07,220,58,290,41,214,69,290,40,229,36,310,40,216,69,012,39*61
$GAGSV,2,2,07,228,68,226,36,215,44,257,34,237,19,052,*62
$GQGSV,1,1,04,59,80,077,42,58,56,160,39,57,29,086,,60,26,163,*7C
$GPADD1,0,250,21,1*52
#HEAD,13453,1350175,3174479758,1084
$GNGGA,081849.000,3724.3253,N,12707.1883,E,1,11,0.9,41.2,M,19.9,M,,0000*75
$GNGLL,3724.3253,N,12707.1883,E,081849.000,A,A*4F
$GNGSA,A,3,17,19,03,22,06,14,01,02,,,,,1.7,0.9,1.4*2B
$GNGSA,A,3,87,,,,,,,,,,,,1.7,0.9,1.4*29
$GNGSA,A,3,220,229,214,216,228,215,,,,,,,1.7,0.9,1.4*23
$GNGSA,A,3,59,58,,,,,,,,,,,1.7,0.9,1.4*27
$GNGST,081849.000,11.19,2.91,2.65,173.63,2.91,2.65,4.72*7C
$GNRMC,081849.000,A,3724.3253,N,12707.1883,E,12.43,85.65,270225,8.75,W,A*31
$GNVTG,85.65,T,94.40,M,12.43,N,23.0,K,A*0F
$GPGSV,3,1,11,17,67,345,44,19,40,309,42,03,55,072,42,22,66,261,40*7F
$GPGSV,3,2,11,06,28,256,38,14,59,207,36,01,31,051,27,02,20,059,24*7F
$GPGSV,3,3,11,04,05,123,,11,00,246,,09,00,152,*47
$GLGSV,3,1,10,87,46,308,42,77,46,285,37,86,48,025,,76,39,216,*64
$GLGSV,3,2,10,71,31,097,,70,22,045,,72,12,146,,78,07,335,*61
$GLGSV,3,3,10,85,06,067,,88,01,268,*63
$GAGSV,2,1,07,220,58,290,41,214,69,290,40,229,36,310,40,216,69,012,39*61
$GAGSV,2,2,07,228,68,226,36,215,44,257,34,237,19,052,*62
$GQGSV,1,1,04,59,80,077,42,58,56,160,39,57,29,086,,60,26,163,*7C
$GPADD1,0,255,17,1*52
#HEAD,13463,1351169,3171763145,1084
$GNGGA,081850.000,3724.3256,N,12707.1924,E,1,11,0.9,41.6,M,19.9,M,,0000*70
$GNGLL,3724.3256,N,12707.1924,E,081850.000,A,A*4E
$GNGSA,A,3,17,19,03,22,06,14,01,02,,,,,1.7,0.9,1.4*2B
$GNGSA,A,3,87,,,,,,,,,,,,1.7,0.9,1.4*29
$GNGSA,A,3,220,214,229,216,228,215,,,,,,,1.7,0.9,1.4*23
$GNGSA,A,3,59,58,,,,,,,,,,,1.7,0.9,1.4*27
$GNGST,081850.000,11.52,3.24,2.85,172.63,3.24,2.86,4.79*72
$GNRMC,081850.000,A,3724.3256,N,12707.1924,E,12.02,85.71,270225,8.75,W,A*30
$GNVTG,85.71,T,94.46,M,12.02,N,22.3,K,A*0B
$GPGSV,3,1,11,17,67,345,44,19,40,309,42,03,55,072,42,22,66,261,40*7F
$GPGSV,3,2,11,06,28,256,38,14,59,207,36,01,31,051,27,02,20,059,24*7F
$GPGSV,3,3,11,04,05,123,,11,00,246,,09,00,152,*47
$GLGSV,3,1,10,87,46,308,42,77,46,285,37,86,48,025,,76,39,216,*64
$GLGSV,3,2,10,71,31,097,,70,22,045,,72,12,146,,78,07,335,*61
$GLGSV,3,3,10,85,06,067,,88,01,268,*63
$GAGSV,2,1,07,220,58,290,41,214,69,290,40,229,36,310,40,216,69,012,39*61
$GAGSV,2,2,07,228,68,226,36,215,44,257,34,237,19,052,*62
$GQGSV,1,1,04,59,80,077,42,58,56,160,39,57,29,086,,60,26,163,*7C
$GPADD1,0,246,16,3*53
#HEAD,13474,1352175,991189749,1084
$GNGGA,081851.000,3724.3255,N,12707.1969,E,1,11,0.9,42.0,M,19.9,M,,0000*7E
$GNGLL,3724.3255,N,12707.1969,E,081851.000,A,A*45
$GNGSA,A,3,17,03,19,22,06,14,01,02,,,,,1.7,0.9,1.4*2B
$GNGSA,A,3,87,,,,,,,,,,,,1.7,0.9,1.4*29
$GNGSA,A,3,220,214,229,216,228,215,,,,,,,1.7,0.9,1.4*23
$GNGSA,A,3,59,58,,,,,,,,,,,1.7,0.9,1.4*27
$GNGST,081851.000,11.66,4.13,3.33,169.98,4.11,3.35,4.84*7F
$GNRMC,081851.000,A,3724.3255,N,12707.1969,E,13.40,88.95,270225,8.75,W,A*3B
$GNVTG,88.95,T,97.69,M,13.40,N,24.8,K,A*08
$GPGSV,3,1,11,17,67,345,44,19,40,309,42,03,55,072,42,22,66,261,40*7F
$GPGSV,3,2,11,06,28,256,38,14,59,207,36,01,31,051,27,02,20,059,24*7F
$GPGSV,3,3,11,04,05,123,,11,00,246,,09,00,152,*47
$GLGSV,3,1,10,87,46,308,42,77,46,285,37,86,48,025,,76,39,216,*64
$GLGSV,3,2,10,71,31,097,,70,22,045,,72,12,146,,78,07,335,*61
$GLGSV,3,3,10,85,06,067,,88,01,268,*63
$GAGSV,2,1,07,220,58,290,41,214,69,290,40,229,36,310,40,216,69,012,39*61
$GAGSV,2,2,07,228,68,226,36,215,44,257,34,237,19,052,*62
$GQGSV,1,1,04,59,80,077,42,58,56,160,39,57,29,086,,60,26,163,*7C
$GPADD1,0,275,-7,1*4C
#HEAD,13483,1353166,3156237001,1086
$GNGGA,081852.000,3724.3254,N,12707.2020,E,1,11,0.9,42.4,M,19.9,M,,0000*7F
$GNGLL,3724.3254,N,12707.2020,E,081852.000,A,A*40
$GNGSA,A,3,17,03,19,22,06,14,01,02,,,,,1.7,0.9,1.4*2B
$GNGSA,A,3,87,,,,,,,,,,,,1.7,0.9,1.4*29
$GNGSA,A,3,220,214,216,228,215,229,,,,,,,1.7,0.9,1.4*23
$GNGSA,A,3,59,58,,,,,,,,,,,1.7,0.9,1.4*27
$GNGST,081852.000,11.74,4.50,3.54,165.10,4.44,3.61,4.97*76
$GNRMC,081852.000,A,3724.3254,N,12707.2020,E,15.42,92.13,270225,8.75,W,A*3F
$GNVTG,92.13,T,100.88,M,15.42,N,28.6,K,A*3B
$GPGSV,3,1,11,17,67,345,44,19,40,309,42,03,55,072,42,22,66,261,40*7F
$GPGSV,3,2,11,06,28,256,38,14,59,207,36,01,31,051,27,02,20,059,24*7F
$GPGSV,3,3,11,04,05,123,,11,00,246,,09,00,152,*47
$GLGSV,3,1,10,87,46,308,42,77,46,285,37,86,48,025,,76,39,216,*64
$GLGSV,3,2,10,71,31,097,,70,22,045,,72,12,146,,78,07,335,*61
$GLGSV,3,3,10,85,06,067,,88,01,268,*63
$GAGSV,2,1,07,220,58,290,41,214,69,290,40,229,36,310,40,216,69,012,39*61
$GAGSV,2,2,07,228,68,226,36,215,44,257,34,237,19,052,*62
$GQGSV,1,1,04,59,80,077,42,58,56,160,39,57,29,086,,60,26,163,*7C
$GPADD1,0,317,-13,1*7C
#HEAD,13494,1354215,3159025103,1085
$GNGGA,081853.000,3724.3252,N,12707.2076,E,1,11,0.9,42.8,M,19.9,M,,0000*77
$GNGLL,3724.3252,N,12707.2076,E,081853.000,A,A*44
$GNGSA,A,3,17,03,22,06,19,14,01,02,,,,,1.7,0.9,1.4*2B
$GNGSA,A,3,87,,,,,,,,,,,,1.7,0.9,1.4*29
$GNGSA,A,3,220,216,214,228,215,229,,,,,,,1.7,0.9,1.4*23
$GNGSA,A,3,59,58,,,,,,,,,,,1.7,0.9,1.4*27
$GNGST,081853.000,13.07,4.97,3.59,161.70,4.85,3.75,5.18*7B
$GNRMC,081853.000,A,3724.3252,N,12707.2076,E,16.10,91.94,270225,8.75,W,A*33
$GNVTG,91.94,T,100.69,M,16.10,N,29.8,K,A*33
$GPGSV,3,1,11,17,67,345,44,03,55,072,42,22,66,261,39,06,28,256,38*77
$GPGSV,3,2,11,19,40,309,38,14,59,207,29,01,31,051,27,02,20,059,25*7B
$GPGSV,3,3,11,04,05,123,,11,00,246,,09,00,152,*47
$GLGSV,3,1,10,87,46,308,42,77,46,285,37,86,48,025,,76,39,216,*64
$GLGSV,3,2,10,71,31,097,,70,22,045,,72,12,146,,78,07,335,*61
$GLGSV,3,3,10,85,06,067,,88,01,268,*63
$GAGSV,2,1,07,220,58,290,41,216,69,012,40,214,69,290,40,228,68,226,36*60
$GAGSV,2,2,07,215,44,257,35,229,36,310,29,237,19,052,*63
$GQGSV,1,1,04,59,80,077,42,58,56,160,31,57,29,086,,60,26,163,*74
$GPADD1,0,331,-6,1*4C
#HEAD,13503,1355165,3159525532,1080
$GNGGA,081854.000,3724.3253,N,12707.2131,E,1,11,1.0,43.0,M,19.9,M,,0000*72
$GNGLL,3724.3253,N,12707.2131,E,081854.000,A,A*40
$GNGSA,A,3,17,03,01,22,06,19,14,02,,,,,1.8,1.0,1.4*2C
$GNGSA,A,3,87,,,,,,,,,,,,1.8,1.0,1.4*2E
$GNGSA,A,3,216,220,214,228,215,,,,,,,,1.8,1.0,1.4*1D
$GNGSA,A,3,59,58,,,,,,,,,,,1.8,1.0,1.4*20
$GNGST,081854.000,13.31,5.47,3.54,160.09,5.28,3.81,5.15*77
$GNRMC,081854.000,A,3724.3253,N,12707.2131,E,14.87,90.56,270225,8.75,W,A*34
$GNVTG,90.56,T,99.31,M,14.87,N,27.5,K,A*0F
$GPGSV,3,1,11,17,67,345,44,03,55,072,42,22,66,261,39,06,28,256,38*77
$GPGSV,3,2,11,19,40,309,38,14,59,207,29,01,31,051,27,02,20,059,25*7B
$GPGSV,3,3,11,04,05,123,,11,00,246,,09,00,152,*47
$GLGSV,3,1,10,87,46,308,42,77,46,285,37,86,48,025,,76,39,216,*64
$GLGSV,3,2,10,71,31,097,,70,22,045,,72,12,146,,78,07,335,*61
$GLGSV,3,3,10,85,06,067,,88,01,268,*63
$GAGSV,2,1,07,220,58,290,41,216,69,012,40,214,69,290,40,228,68,226,36*60
$GAGSV,2,2,07,215,44,257,35,229,36,310,29,237,19,052,*63
$GQGSV,1,1,04,59,80,077,42,58,56,160,31,57,29,086,,60,26,163,*74
$GPADD1,0,305,6,4*63
#HEAD,13514,1356174,3140675112,1082
$GNGGA,081855.000,3724.3254,N,12707.2187,E,1,11,1.0,43.2,M,19.9,M,,0000*7B
$GNGLL,3724.3254,N,12707.2187,E,081855.000,A,A*4B
$GNGSA,A,3,17,03,22,06,19,01,14,02,,,,,1.8,1.0,1.4*2C
$GNGSA,A,3,87,,,,,,,,,,,,1.8,1.0,1.4*2E
$GNGSA,A,3,216,220,214,228,215,,,,,,,,1.8,1.0,1.4*1D
$GNGSA,A,3,59,58,,,,,,,,,,,1.8,1.0,1.4*20
$GNGST,081855.000,13.44,6.12,3.60,159.03,5.86,4.02,5.13*7E
$GNRMC,081855.000,A,3724.3254,N,12707.2187,E,16.35,91.26,270225,8.75,W,A*32
$GNVTG,91.26,T,100.01,M,16.35,N,30.3,K,A*30
$GPGSV,3,1,11,17,67,345,44,03,55,072,42,22,66,261,39,06,28,256,38*77
$GPGSV,3,2,11,19,40,309,38,14,59,207,29,01,31,051,27,02,20,059,25*7B
$GPGSV,3,3,11,04,05,123,,11,00,246,,09,00,152,*47
$GLGSV,3,1,10,87,46,308,42,77,46,285,37,86,48,025,,76,39,216,*64
$GLGSV,3,2,10,71,31,097,,70,22,045,,72,12,146,,78,07,335,*61
$GLGSV,3,3,10,85,06,067,,88,01,268,*63
$GAGSV,2,1,07,220,58,290,41,216,69,012,40,214,69,290,40,228,68,226,36*60
$GAGSV,2,2,07,215,44,257,35,229,36,310,29,237,19,052,*63
$GQGSV,1,1,04,59,80,077,42,58,56,160,31,57,29,086,,60,26,163,*74
$GPADD1,0,336,-9,1*44
#HEAD,13523,1357162,1008395904,1083
$GNGGA,081856.000,3724.3252,N,12707.2248,E,1,10,0.9,43.3,M,19.9,M,,0000*76
$GNGLL,3724.3252,N,12707.2248,E,081856.000,A,A*4E
$GNGSA,A,3,17,03,22,06,19,01,14,,,,,,1.8,0.9,1.5*27
$GNGSA,A,3,71,,,,,,,,,,,,1.8,0.9,1.5*2E
$GNGSA,A,3,216,220,214,228,229,215,,,,,,,1.8,0.9,1.5*2D
$GNGSA,A,3,59,58,,,,,,,,,,,1.8,0.9,1.5*29
$GNGST,081856.000,13.53,7.30,4.01,159.54,6.98,4.54,5.52*72
$GNRMC,081856.000,A,3724.3252,N,12707.2248,E,16.61,91.53,270225,8.75,W,A*34
$GNVTG,91.53,T,100.28,M,16.61,N,30.8,K,A*33
$GPGSV,3,1,11,17,67,345,44,03,55,072,42,22,66,261,39,06,28,256,38*77
$GPGSV,3,2,11,19,40,309,38,14,59,207,29,01,31,051,27,02,20,059,25*7B
$GPGSV,3,3,11,04,05,123,,11,00,246,,09,00,152,*47
$GLGSV,3,1,10,87,46,308,42,77,46,285,37,86,48,025,,76,39,216,*64
$GLGSV,3,2,10,71,31,097,,70,22,045,,72,12,146,,78,07,335,*61
$GLGSV,3,3,10,85,06,067,,88,01,268,*63
$GAGSV,2,1,07,220,58,290,41,216,69,012,40,214,69,290,40,228,68,226,36*60
$GAGSV,2,2,07,215,44,257,35,229,36,310,29,237,19,052,*63
$GQGSV,1,1,04,59,80,077,42,58,56,160,31,57,29,086,,60,26,163,*74
$GPADD1,0,341,-9,5*40
#HEAD,13533,1358168,1005440521,1086
$GNGGA,081857.000,3724.3249,N,12707.2312,E,1,11,0.9,43.8,M,19.9,M,,0000*79
$GNGLL,3724.3249,N,12707.2312,E,081857.000,A,A*4B
$GNGSA,A,3,17,03,22,06,19,01,14,02,,,,,1.7,0.9,1.4*2B
$GNGSA,A,3,86,,,,,,,,,,,,1.7,0.9,1.4*28
$GNGSA,A,3,216,220,214,228,215,229,,,,,,,1.7,0.9,1.4*23
$GNGSA,A,3,59,58,,,,,,,,,,,1.7,0.9,1.4*27
$GNGST,081857.000,13.85,7.76,4.18,159.03,7.40,4.79,5.51*78
$GNRMC,081857.000,A,3724.3249,N,12707.2312,E,17.88,93.02,270225,8.75,W,A*31
$GNVTG,93.02,T,101.77,M,17.88,N,33.1,K,A*32
$GPGSV,3,1,11,17,67,345,44,03,55,072,42,22,66,261,39,06,28,256,38*77
$GPGSV,3,2,11,19,40,309,38,14,59,207,29,01,31,051,27,02,20,059,25*7B
$GPGSV,3,3,11,04,05,123,,11,00,246,,09,00,152,*47
$GLGSV,3,1,10,87,46,308,42,77,46,285,37,86,48,025,,76,39,216,*64
$GLGSV,3,2,10,71,31,097,,70,22,045,,72,12,146,,78,07,335,*61
$GLGSV,3,3,10,85,06,067,,88,01,268,*63
$GAGSV,2,1,07,220,58,290,41,216,69,012,40,214,69,290,40,228,68,226,36*60
$GAGSV,2,2,07,215,44,257,35,229,36,310,29,237,19,052,*63
$GQGSV,1,1,04,59,80,077,42,58,56,160,31,57,29,086,,60,26,163,*74
$GPADD1,0,367,-23,4*7D
#HEAD,13544,1359212,3145918169,1086
$GNGGA,081858.000,3724.3240,N,12707.2383,E,1,11,0.9,44.2,M,19.9,M,,0000*7A
$GNGLL,3724.3240,N,12707.2383,E,081858.000,A,A*45
$GNGSA,A,3,17,03,22,06,19,01,14,02,,,,,1.7,0.9,1.4*2B
$GNGSA,A,3,86,,,,,,,,,,,,1.7,0.9,1.4*28
$GNGSA,A,3,216,220,214,228,215,229,,,,,,,1.7,0.9,1.4*23
$GNGSA,A,3,59,58,,,,,,,,,,,1.7,0.9,1.4*27
$GNGST,081858.000,14.30,7.93,4.25,158.43,7.54,4.91,5.50*7C
$GNRMC,081858.000,A,3724.3240,N,12707.2383,E,19.91,96.41,270225,8.75,W,A*3B
$GNVTG,96.41,T,105.16,M,19.91,N,36.9,K,A*38
$GPGSV,3,1,11,17,67,345,43,03,55,072,42,22,66,261,39,06,28,256,37*7F
$GPGSV,3,2,11,19,40,309,32,01,31,051,27,14,59,207,26,02,20,059,24*7F
$GPGSV,3,3,11,04,05,123,,11,00,246,,09,00,152,*47
$GLGSV,3,1,10,86,48,025,45,77,46,285,37,87,46,308,,76,39,216,*63
$GLGSV,3,2,10,71,31,097,,70,22,045,,72,12,146,,78,07,335,*61
$GLGSV,3,3,10,85,06,067,,88,01,268,*63
$GAGSV,2,1,07,216,69,012,41,220,58,290,40,214,69,290,40,228,68,226,36*60
$GAGSV,2,2,07,215,44,257,35,229,36,310,28,237,19,052,*62
$GQGSV,1,1,04,59,80,077,42,58,56,160,30,57,29,086,,60,26,163,*75
$GPADD1,0,406,-51,1*7D
#HEAD,13554,1360179,3157452328,1083
$GNGGA,081859.000,3724.3238,N,12707.2460,E,1,10,1.0,44.4,M,19.9,M,,0000*71
$GNGLL,3724.3238,N,12707.2460,E,081859.000,A,A*41
$GNGSA,A,3,17,03,22,06,19,14,01,02,,,,,1.7,1.0,1.4*23
$GNGSA,A,3,71,,,,,,,,,,,,1.7,1.0,1.4*28
$GNGSA,A,3,216,220,214,228,215,229,,,,,,,1.7,1.0,1.4*2B
$GNGSA,A,3,59,,,,,,,,,,,,1.7,1.0,1.4*22
$GNGST,081859.000,14.19,7.50,4.10,158.89,7.15,4.68,5.65*7C
$GNRMC,081859.000,A,3724.3238,N,12707.2460,E,20.94,91.22,270225,8.75,W,A*32
$GNVTG,91.22,T,99.97,M,20.94,N,38.8,K,A*07
$GPGSV,3,1,11,17,67,345,43,03,55,072,42,22,66,261,39,06,28,256,37*7F
$GPGSV,3,2,11,19,40,309,32,01,31,051,27,14,59,207,26,02,20,059,24*7F
$GPGSV,3,3,11,04,05,123,,11,00,246,,09,00,152,*47
$GLGSV,3,1,10,86,48,025,45,77,46,285,37,87,46,308,,76,39,216,*63
$GLGSV,3,2,10,71,31,097,,70,22,045,,72,12,146,,78,07,335,*61
$GLGSV,3,3,10,85,06,067,,88,01,268,*63
$GAGSV,2,1,07,216,69,012,41,220,58,290,40,214,69,290,40,228,68,226,36*60
$GAGSV,2,2,07,215,44,257,35,229,36,310,28,237,19,052,*62
$GQGSV,1,1,04,59,80,077,42,58,56,160,30,57,29,086,,60,26,163,*75
$GPADD1,0,430,-7,-2*65
#HEAD,13563,1361155,986804570,1085
$GNGGA,081900.000,3724.3238,N,12707.2539,E,1,11,0.9,44.5,M,19.9,M,,0000*79
$GNGLL,3724.3238,N,12707.2539,E,081900.000,A,A*41
$GNGSA,A,3,17,03,22,19,06,14,01,02,,,,,1.6,0.9,1.4*2A
$GNGSA,A,3,71,,,,,,,,,,,,1.6,0.9,1.4*21
$GNGSA,A,3,216,220,214,228,215,229,,,,,,,1.6,0.9,1.4*22
$GNGSA,A,3,59,58,,,,,,,,,,,1.6,0.9,1.4*26
$GNGST,081900.000,14.59,7.04,3.83,159.61,6.73,4.35,5.66*74
$GNRMC,081900.000,A,3724.3238,N,12707.2539,E,21.79,90.78,270225,8.75,W,A*3E
$GNVTG,90.78,T,99.53,M,21.79,N,40.4,K,A*00
$GPGSV,3,1,11,17,67,345,43,03,55,072,42,22,66,261,39,06,28,256,37*7F
$GPGSV,3,2,11,19,40,309,32,01,31,051,27,14,59,207,26,02,20,059,24*7F
$GPGSV,3,3,11,04,05,123,,11,00,246,,09,00,152,*47
$GLGSV,3,1,10,86,48,025,45,77,46,285,37,87,46,308,,76,39,216,*63
$GLGSV,3,2,10,71,31,097,,70,22,045,,72,12,146,,78,07,335,*61
$GLGSV,3,3,10,85,06,067,,88,01,268,*63
$GAGSV,2,1,07,216,69,012,41,220,58,290,40,214,69,290,40,228,68,226,36*60
$GAGSV,2,2,07,215,44,257,35,229,36,310,28,237,19,052,*62
$GQGSV,1,1,04,59,80,077,42,58,56,160,30,57,29,086,,60,26,163,*75
$GPADD1,0,448,-6,-1*68
#HEAD,13573,1362162,3137529561,1085
$GNGGA,081901.000,3724.3242,N,12707.2619,E,1,11,0.9,44.4,M,19.9,M,,0000*75
$GNGLL,3724.3242,N,12707.2619,E,081901.000,A,A*4C
$GNGSA,A,3,17,03,19,22,02,06,14,01,,,,,1.6,0.9,1.4*2A
$GNGSA,A,3,71,,,,,,,,,,,,1.6,0.9,1.4*21
$GNGSA,A,3,216,220,214,228,229,215,,,,,,,1.6,0.9,1.4*22
$GNGSA,A,3,59,58,,,,,,,,,,,1.6,0.9,1.4*26
$GNGST,081901.000,12.95,6.66,3.72,161.03,6.41,4.13,5.78*7D
$GNRMC,081901.000,A,3724.3242,N,12707.2619,E,22.66,90.76,270225,8.75,W,A*30
$GNVTG,90.76,T,99.50,M,22.66,N,42.0,K,A*06
$GPGSV,3,1,11,17,67,345,43,03,55,072,42,22,66,261,39,06,28,256,37*7F
$GPGSV,3,2,11,19,40,309,32,01,31,051,27,14,59,207,26,02,20,059,24*7F
$GPGSV,3,3,11,04,05,123,,11,00,246,,09,00,152,*47
$GLGSV,3,1,10,86,48,025,45,77,46,285,37,87,46,308,,76,39,216,*63
$GLGSV,3,2,10,71,31,097,,70,22,045,,72,12,146,,78,07,335,*61
$GLGSV,3,3,10,85,06,067,,88,01,268,*63
$GAGSV,2,1,07,216,69,012,41,220,58,290,40,214,69,290,40,228,68,226,36*60
$GAGSV,2,2,07,215,44,257,35,229,36,310,28,237,19,052,*62
$GQGSV,1,1,04,59,80,077,42,58,56,160,30,57,29,086,,60,26,163,*75
$GPADD1,0,466,-7,-2*66
#HEAD,13583,1363158,3142390867,1085
$GNGGA,081902.000,3724.3246,N,12707.2704,E,1,11,0.9,43.7,M,19.9,M,,0000*7B
$GNGLL,3724.3246,N,12707.2704,E,081902.000,A,A*46
$GNGSA,A,3,17,03,01,19,22,02,14,06,,,,,1.6,0.9,1.4*2A
$GNGSA,A,3,71,,,,,,,,,,,,1.6,0.9,1.4*21
$GNGSA,A,3,216,214,220,228,215,229,,,,,,,1.6,0.9,1.4*22
$GNGSA,A,3,59,58,,,,,,,,,,,1.6,0.9,1.4*26
$GNGST,081902.000,10.50,6.92,3.90,161.72,6.69,4.29,6.45*7A
$GNRMC,081902.000,A,3724.3246,N,12707.2704,E,23.06,90.70,270225,8.75,W,A*3B
$GNVTG,90.70,T,99.45,M,23.06,N,42.7,K,A*04
$GPGSV,3,1,11,17,67,345,43,03,55,072,42,22,66,261,39,06,28,256,37*7F
$GPGSV,3,2,11,19,40,309,32,01,31,051,27,14,59,207,26,02,20,059,24*7F
$GPGSV,3,3,11,04,05,123,,11,00,246,,09,00,152,*47
$GLGSV,3,1,10,86,48,025,45,77,46,285,37,87,46,308,,76,39,216,*63
$GLGSV,3,2,10,71,31,097,,70,22,045,,72,12,146,,78,07,335,*61
$GLGSV,3,3,10,85,06,067,,88,01,268,*63
$GAGSV,2,1,07,216,69,012,41,220,58,290,40,214,69,290,40,228,68,226,36*60
$GAGSV,2,2,07,215,44,257,35,229,36,310,28,237,19,052,*62
$GQGSV,1,1,04,59,80,077,42,58,56,160,30,57,29,086,,60,26,163,*75
$GPADD1,0,474,-6,-6*60
#HEAD,13594,1364204,948674791,1085
$GNGGA,081903.000,3724.3250,N,12707.2789,E,1,11,0.9,43.4,M,19.9,M,,0000*7B
$GNGLL,3724.3250,N,12707.2789,E,081903.000,A,A*45
$GNGSA,A,3,17,01,03,22,14,06,19,02,,,,,1.6,0.9,1.4*2A
$GNGSA,A,3,71,,,,,,,,,,,,1.6,0.9,1.4*21
$GNGSA,A,3,216,220,214,228,215,229,,,,,,,1.6,0.9,1.4*22
$GNGSA,A,3,59,58,,,,,,,,,,,1.6,0.9,1.4*26
$GNGST,081903.000,12.15,6.43,3.63,161.41,6.21,4.01,6.35*79
$GNRMC,081903.000,A,3724.3250,N,12707.2789,E,23.56,90.66,270225,8.75,W,A*3A
$GNVTG,90.66,T,99.40,M,23.56,N,43.6,K,A*03
$GPGSV,3,1,11,17,67,345,43,01,31,051,42,03,55,072,42,22,66,261,38*76
$GPGSV,3,2,11,14,59,207,37,06,28,256,30,19,40,309,30,02,20,059,29*7C
$GPGSV,3,3,11,04,05,123,,11,00,246,,09,00,152,*47
$GLGSV,3,1,10,71,31,097,42,86,48,025,,77,46,285,,87,46,308,*64
$GLGSV,3,2,10,76,39,216,,70,22,045,,72,12,146,,78,07,335,*65
$GLGSV,3,3,10,85,06,067,,88,01,268,*63
$GAGSV,2,1,07,216,69,012,40,220,58,290,40,214,69,290,40,228,68,226,36*61
$GAGSV,2,2,07,215,44,257,36,229,36,310,24,237,19,052,*6D
$GQGSV,1,1,04,59,80,077,42,58,56,160,37,60,26,163,35,57,29,086,*74
$GPADD1,0,484,-5,-3*69
#HEAD,13603,1365156,3149778617,1085
$GNGGA,081904.000,3724.3253,N,12707.2873,E,1,11,0.9,43.3,M,19.9,M,,0000*72
$GNGLL,3724.3253,N,12707.2873,E,081904.000,A,A*4B
$GNGSA,A,3,17,03,01,22,14,06,02,19,,,,,1.7,0.9,1.4*2B
$GNGSA,A,3,86,,,,,,,,,,,,1.7,0.9,1.4*28
$GNGSA,A,3,220,216,214,228,215,229,,,,,,,1.7,0.9,1.4*23
$GNGSA,A,3,59,58,,,,,,,,,,,1.7,0.9,1.4*27
$GNGST,081904.000,13.62,5.46,3.14,161.13,5.26,3.46,5.84*77
$GNRMC,081904.000,A,3724.3253,N,12707.2873,E,24.10,90.35,270225,8.75,W,A*37
$GNVTG,90.35,T,99.10,M,24.10,N,44.6,K,A*02
$GPGSV,3,1,11,17,67,345,43,01,31,051,42,03,55,072,42,22,66,261,38*76
$GPGSV,3,2,11,14,59,207,37,06,28,256,30,19,40,309,30,02,20,059,29*7C
$GPGSV,3,3,11,04,05,123,,11,00,246,,09,00,152,*47
$GLGSV,3,1,10,71,31,097,42,86,48,025,,77,46,285,,87,46,308,*64
$GLGSV,3,2,10,76,39,216,,70,22,045,,72,12,146,,78,07,335,*65
$GLGSV,3,3,10,85,06,067,,88,01,268,*63
$GAGSV,2,1,07,216,69,012,40,220,58,290,40,214,69,290,40,228,68,226,36*61
$GAGSV,2,2,07,215,44,257,36,229,36,310,24,237,19,052,*6D
$GQGSV,1,1,04,59,80,077,42,58,56,160,37,60,26,163,35,57,29,086,*74
$GPADD1,0,495,-2,-2*6F
#HEAD,13613,1366156,3112935655,1084
$GNGGA,081905.000,3724.3256,N,12707.2961,E,1,11,0.9,42.7,M,19.9,M,,0000*71
$GNGLL,3724.3256,N,12707.2961,E,081905.000,A,A*4D
$GNGSA,A,3,17,03,01,22,14,06,02,19,,,,,1.7,0.9,1.4*2B
$GNGSA,A,3,86,,,,,,,,,,,,1.7,0.9,1.4*28
$GNGSA,A,3,220,216,214,228,215,229,,,,,,,1.7,0.9,1.4*23
$GNGSA,A,3,59,58,,,,,,,,,,,1.7,0.9,1.4*27
$GNGST,081905.000,13.41,5.27,3.02,160.37,5.06,3.35,5.92*71
$GNRMC,081905.000,A,3724.3256,N,12707.2961,E,24.81,90.08,270225,8.75,W,A*37
$GNVTG,90.08,T,98.82,M,24.81,N,45.9,K,A*00
$GPGSV,3,1,11,17,67,345,43,01,31,051,42,03,55,072,42,22,66,261,38*76
$GPGSV,3,2,11,14,59,207,37,06,28,256,30,19,40,309,30,02,20,059,29*7C
$GPGSV,3,3,11,04,05,123,,11,00,246,,09,00,152,*47
$GLGSV,3,1,10,71,31,097,42,86,48,025,,77,46,285,,87,46,308,*64
$GLGSV,3,2,10,76,39,216,,70,22,045,,72,12,146,,78,07,335,*65
$GLGSV,3,3,10,85,06,067,,88,01,268,*63
$GAGSV,2,1,07,216,69,012,40,220,58,290,40,214,69,290,40,228,68,226,36*61
$GAGSV,2,2,07,215,44,257,36,229,36,310,24,237,19,052,*6D
$GQGSV,1,1,04,59,80,077,42,58,56,160,37,60,26,163,35,57,29,086,*74
$GPADD1,0,510,0,-3*4D
#HEAD,13623,1367156,3140389153,1085
$GNGGA,081906.000,3724.3258,N,12707.3050,E,1,11,0.9,42.3,M,19.9,M,,0000*72
$GNGLL,3724.3258,N,12707.3050,E,081906.000,A,A*4A
$GNGSA,A,3,17,03,01,22,14,06,02,19,,,,,1.7,0.9,1.4*2B
$GNGSA,A,3,86,,,,,,,,,,,,1.7,0.9,1.4*28
$GNGSA,A,3,220,214,216,228,215,229,,,,,,,1.7,0.9,1.4*23
$GNGSA,A,3,59,58,,,,,,,,,,,1.7,0.9,1.4*27
$GNGST,081906.000,13.65,4.66,2.72,158.99,4.46,3.04,5.57*77
$GNRMC,081906.000,A,3724.3258,N,12707.3050,E,25.32,90.17,270225,8.75,W,A*37
$GNVTG,90.17,T,98.91,M,25.32,N,46.9,K,A*06
$GPGSV,3,1,11,17,67,345,43,01,31,051,42,03,55,072,42,22,66,261,38*76
$GPGSV,3,2,11,14,59,207,37,06,28,256,30,19,40,309,30,02,20,059,29*7C
$GPGSV,3,3,11,04,05,123,,11,00,246,,09,00,152,*47
$GLGSV,3,1,10,71,31,097,42,86,48,025,,77,46,285,,87,46,308,*64
$GLGSV,3,2,10,76,39,216,,70,22,045,,72,12,146,,78,07,335,*65
$GLGSV,3,3,10,85,06,067,,88,01,268,*63
$GAGSV,2,1,07,216,69,012,40,220,58,290,40,214,69,290,40,228,68,226,36*61
$GAGSV,2,2,07,215,44,257,36,229,36,310,24,237,19,052,*6D
$GQGSV,1,1,04,59,80,077,42,58,56,160,37,60,26,163,35,57,29,086,*74
$GPADD1,0,521,-1,-5*65
#HEAD,13633,1368151,3148062863,1086
$GNGGA,081907.000,3724.3258,N,12707.3141,E,1,11,0.9,42.0,M,19.9,M,,0000*71
$GNGLL,3724.3258,N,12707.3141,E,081907.000,A,A*4A
$GNGSA,A,3,17,03,01,22,14,06,02,19,,,,,1.7,0.9,1.4*2B
$GNGSA,A,3,86,,,,,,,,,,,,1.7,0.9,1.4*28
$GNGSA,A,3,220,214,216,228,215,229,,,,,,,1.7,0.9,1.4*23
$GNGSA,A,3,59,58,,,,,,,,,,,1.7,0.9,1.4*27
$GNGST,081907.000,13.66,4.51,2.55,157.51,4.28,2.92,5.44*7B
$GNRMC,081907.000,A,3724.3258,N,12707.3141,E,25.90,91.08,270225,8.75,W,A*30
$GNVTG,91.08,T,99.82,M,25.90,N,48.0,K,A*05
$GPGSV,3,1,11,17,67,345,43,01,31,051,42,03,55,072,42,22,66,261,38*76
$GPGSV,3,2,11,14,59,207,37,06,28,256,30,19,40,309,30,02,20,059,29*7C
$GPGSV,3,3,11,04,05,123,,11,00,246,,09,00,152,*47
$GLGSV,3,1,10,71,31,097,42,86,48,025,,77,46,285,,87,46,308,*64
$GLGSV,3,2,10,76,39,216,,70,22,045,,72,12,146,,78,07,335,*65
$GLGSV,3,3,10,85,06,067,,88,01,268,*63
$GAGSV,2,1,07,216,69,012,40,220,58,290,40,214,69,290,40,228,68,226,36*61
$GAGSV,2,2,07,215,44,257,36,229,36,310,24,237,19,052,*6D
$GQGSV,1,1,04,59,80,077,42,58,56,160,37,60,26,163,35,57,29,086,*74
$GPADD1,0,532,-11,-4*57
#HEAD,13644,1369202,3146776046,1085
$GNGGA,081908.000,3724.3257,N,12707.3230,E,1,11,0.9,42.0,M,19.9,M,,0000*74
$GNGLL,3724.3257,N,12707.3230,E,081908.000,A,A*4F
$GNGSA,A,3,17,03,01,06,22,19,14,02,,,,,1.7,0.9,1.4*2B
$GNGSA,A,3,86,,,,,,,,,,,,1.7,0.9,1.4*28
$GNGSA,A,3,220,214,216,229,228,215,,,,,,,1.7,0.9,1.4*23
$GNGSA,A,3,59,58,,,,,,,,,,,1.7,0.9,1.4*27
$GNGST,081908.000,10.73,4.66,2.63,157.03,4.41,3.03,5.45*72
$GNRMC,081908.000,A,3724.3257,N,12707.3230,E,24.64,89.56,270225,8.75,W,A*3D
$GNVTG,89.56,T,98.31,M,24.64,N,45.6,K,A*0F
$GPGSV,3,1,11,17,67,345,43,03,55,072,43,01,31,051,42,06,28,256,32*75
$GPGSV,3,2,11,22,66,261,38,19,40,309,37,14,59,207,38,02,20,059,27*7A
$GPGSV,3,3,11,04,05,123,,11,00,246,,09,00,152,*47
$GLGSV,3,1,10,86,48,025,44,77,46,285,,87,46,308,,76,39,216,*66
$GLGSV,3,2,10,71,31,097,,70,22,045,,72,12,146,,78,07,335,*61
$GLGSV,3,3,10,85,06,067,,88,01,268,*63
$GAGSV,2,1,07,220,58,290,42,214,69,290,40,216,69,012,39,229,36,310,36*63
$GAGSV,2,2,07,228,68,226,36,215,44,257,35,237,19,052,*63
$GQGSV,1,1,04,59,80,077,42,58,56,160,38,60,26,163,31,57,29,086,*7F
$GPADD1,0,506,11,11*64
#HEAD,13653,1370150,3153210128,1084
$GNGGA,081909.000,3724.3258,N,12707.3315,E,1,11,0.9,42.0,M,19.9,M,,0000*7C
$GNGLL,3724.3258,N,12707.3315,E,081909.000,A,A*47
$GNGSA,A,3,17,03,01,19,22,06,14,02,,,,,1.7,0.9,1.4*2B
$GNGSA,A,3,86,,,,,,,,,,,,1.7,0.9,1.4*28
$GNGSA,A,3,220,214,216,229,228,215,,,,,,,1.7,0.9,1.4*23
$GNGSA,A,3,59,58,,,,,,,,,,,1.7,0.9,1.4*27
$GNGST,081909.000,10.18,5.13,2.91,155.50,4.82,3.39,5.66*73
$GNRMC,081909.000,A,3724.3258,N,12707.3315,E,24.22,89.95,270225,8.75,W,A*38
$GNVTG,89.95,T,98.69,M,24.22,N,44.9,K,A*01
$GPGSV,3,1,11,17,67,345,43,03,55,072,43,01,31,051,42,06,28,256,32*75
$GPGSV,3,2,11,22,66,261,38,19,40,309,37,14,59,207,38,02,20,059,27*7A
$GPGSV,3,3,11,04,05,123,,11,00,246,,09,00,152,*47
$GLGSV,3,1,10,86,48,025,44,77,46,285,,87,46,308,,76,39,216,*66
$GLGSV,3,2,10,71,31,097,,70,22,045,,72,12,146,,78,07,335,*61
$GLGSV,3,3,10,85,06,067,,88,01,268,*63
$GAGSV,2,1,07,220,58,290,42,214,69,290,40,216,69,012,39,229,36,310,36*63
$GAGSV,2,2,07,228,68,226,36,215,44,257,35,237,19,052,*63
$GQGSV,1,1,04,59,80,077,42,58,56,160,38,60,26,163,31,57,29,086,*7F
$GPADD1,0,498,-1,7*49
#HEAD,13663,1371159,3149063720,1083
$GNGGA,081910.000,3724.3257,N,12707.3401,E,1,11,0.9,42.1,M,19.9,M,,0000*78
$GNGLL,3724.3257,N,12707.3401,E,081910.000,A,A*42
$GNGSA,A,3,17,03,19,22,06,14,01,02,,,,,1.7,0.9,1.4*2B
$GNGSA,A,3,86,,,,,,,,,,,,1.7,0.9,1.4*28
$GNGSA,A,3,220,216,214,229,228,215,,,,,,,1.7,0.9,1.4*23
$GNGSA,A,3,59,58,,,,,,,,,,,1.7,0.9,1.4*27
$GNGST,081910.000,9.93,5.25,3.06,156.38,4.96,3.51,6.03*4C
$GNRMC,081910.000,A,3724.3257,N,12707.3401,E,24.13,90.58,270225,8.75,W,A*36
$GNVTG,90.58,T,99.32,M,24.13,N,44.7,K,A*0B
$GPGSV,3,1,11,17,67,345,43,03,55,072,43,01,31,051,42,06,28,256,32*75
$GPGSV,3,2,11,22,66,261,38,19,40,309,37,14,59,207,38,02,20,059,27*7A
$GPGSV,3,3,11,04,05,123,,11,00,246,,09,00,152,*47
$GLGSV,3,1,10,86,48,025,44,77,46,285,,87,46,308,,76,39,216,*66
$GLGSV,3,2,10,71,31,097,,70,22,045,,72,12,146,,78,07,335,*61
$GLGSV,3,3,10,85,06,067,,88,01,268,*63
$GAGSV,2,1,07,220,58,290,42,214,69,290,40,216,69,012,39,229,36,310,36*63
$GAGSV,2,2,07,228,68,226,36,215,44,257,35,237,19,052,*63
$GQGSV,1,1,04,59,80,077,42,58,56,160,38,60,26,163,31,57,29,086,*7F
$GPADD1,0,496,-5,4*40
#HEAD,13673,1372156,3144964500,1084
$GNGGA,081911.000,3724.3254,N,12707.3484,E,1,11,0.9,42.3,M,19.9,M,,0000*75
$GNGLL,3724.3254,N,12707.3484,E,081911.000,A,A*4D
$GNGSA,A,3,17,03,19,22,14,06,01,02,,,,,1.7,0.9,1.4*2B
$GNGSA,A,3,86,,,,,,,,,,,,1.7,0.9,1.4*28
$GNGSA,A,3,220,214,216,229,228,215,,,,,,,1.7,0.9,1.4*23
$GNGSA,A,3,59,58,,,,,,,,,,,1.7,0.9,1.4*27
$GNGST,081911.000,10.07,4.98,2.97,157.20,4.74,3.35,5.79*7E
$GNRMC,081911.000,A,3724.3254,N,12707.3484,E,23.27,90.37,270225,8.75,W,A*30
$GNVTG,90.37,T,99.12,M,23.27,N,43.1,K,A*01
$GPGSV,3,1,11,17,67,345,43,03,55,072,43,01,31,051,42,06,28,256,32*75
$GPGSV,3,2,11,22,66,261,38,19,40,309,37,14,59,207,38,02,20,059,27*7A
$GPGSV,3,3,11,04,05,123,,11,00,246,,09,00,152,*47
$GLGSV,3,1,10,86,48,025,44,77,46,285,,87,46,308,,76,39,216,*66
$GLGSV,3,2,10,71,31,097,,70,22,045,,72,12,146,,78,07,335,*61
$GLGSV,3,3,10,85,06,067,,88,01,268,*63
$GAGSV,2,1,07,220,58,290,42,214,69,290,40,216,69,012,39,229,36,310,36*63
$GAGSV,2,2,07,228,68,226,36,215,44,257,35,237,19,052,*63
$GQGSV,1,1,04,59,80,077,42,58,56,160,38,60,26,163,31,57,29,086,*7F
$GPADD1,0,478,-1,5*45
#HEAD,13683,1373154,1023528855,1082
$GNGGA,081912.000,3724.3254,N,12707.3564,E,1,11,0.9,42.6,M,19.9,M,,0000*7C
$GNGLL,3724.3254,N,12707.3564,E,081912.000,A,A*41
$GNGSA,A,3,17,03,19,22,14,06,01,02,,,,,1.7,0.9,1.4*2B
$GNGSA,A,3,86,,,,,,,,,,,,1.7,0.9,1.4*28
$GNGSA,A,3,220,214,216,229,228,215,,,,,,,1.7,0.9,1.4*23
$GNGSA,A,3,59,58,,,,,,,,,,,1.7,0.9,1.4*27
$GNGST,081912.000,9.88,5.00,3.18,157.04,4.77,3.52,6.06*4B
$GNRMC,081912.000,A,3724.3254,N,12707.3564,E,22.67,90.08,270225,8.75,W,A*35
$GNVTG,90.08,T,98.83,M,22.67,N,42.0,K,A*01
$GPGSV,3,1,11,17,67,345,43,03,55,072,43,01,31,051,42,06,28,256,32*75
$GPGSV,3,2,11,22,66,261,38,19,40,309,37,14,59,207,38,02,20,059,27*7A
$GPGSV,3,3,11,04,05,123,,11,00,246,,09,00,152,*47
$GLGSV,3,1,10,86,48,025,44,77,46,285,,87,46,308,,76,39,216,*66
$GLGSV,3,2,10,71,31,097,,70,22,045,,72,12,146,,78,07,335,*61
$GLGSV,3,3,10,85,06,067,,88,01,268,*63
$GAGSV,2,1,07,220,58,290,42,214,69,290,40,216,69,012,39,229,36,310,36*63
$GAGSV,2,2,07,228,68,226,36,215,44,257,35,237,19,052,*63
$GQGSV,1,1,04,59,80,077,42,58,56,160,38,60,26,163,31,57,29,086,*7F
$GPADD1,0,466,0,5*66
#HEAD,13694,1374208,1021753054,1083
$GNGGA,081913.000,3724.3257,N,12707.3640,E,1,11,0.9,42.6,M,19.9,M,,0000*7B
$GNGLL,3724.3257,N,12707.3640,E,081913.000,A,A*46
$GNGSA,A,3,17,03,19,06,22,14,01,,,,,,1.8,0.9,1.5*27
$GNGSA,A,3,86,71,,,,,,,,,,,1.8,0.9,1.5*20
$GNGSA,A,3,220,214,216,229,228,215,,,,,,,1.8,0.9,1.5*2D
$GNGSA,A,3,59,58,,,,,,,,,,,1.8,0.9,1.5*29
$GNGST,081913.000,8.60,5.22,3.55,158.24,5.03,3.82,6.87*4F
$GNRMC,081913.000,A,3724.3257,N,12707.3640,E,21.69,87.90,270225,8.75,W,A*38
$GNVTG,87.90,T,96.65,M,21.69,N,40.2,K,A*0D
$GPGSV,3,1,11,17,67,345,44,03,55,072,43,19,40,309,40,06,28,256,38*7B
$GPGSV,3,2,11,22,66,261,38,14,59,207,38,01,31,051,35,02,20,059,*7C
$GPGSV,3,3,11,04,05,123,,11,00,246,,09,00,152,*47
$GLGSV,3,1,10,86,48,025,44,71,31,097,42,77,46,285,,87,46,308,*64
$GLGSV,3,2,10,76,39,216,,70,22,045,,72,12,146,,78,07,335,*65
$GLGSV,3,3,10,85,06,067,,88,01,268,*63
$GAGSV,2,1,07,220,58,290,42,214,69,290,39,216,69,012,39,229,36,310,39*62
$GAGSV,2,2,07,228,68,226,36,215,44,257,35,237,19,052,*63
$GQGSV,1,1,04,59,80,077,42,58,56,160,38,60,26,163,32,57,29,086,*7C
$GPADD1,0,445,16,4*51
#HEAD,13703,1375155,972315028,1083
$GNGGA,081914.000,3724.3260,N,12707.3711,E,1,11,0.9,42.7,M,19.9,M,,0000*7C
$GNGLL,3724.3260,N,12707.3711,E,081914.000,A,A*40
$GNGSA,A,3,17,03,19,06,22,14,01,,,,,,1.8,0.9,1.5*27
$GNGSA,A,3,86,71,,,,,,,,,,,1.8,0.9,1.5*20
$GNGSA,A,3,220,214,216,229,228,215,,,,,,,1.8,0.9,1.5*2D
$GNGSA,A,3,59,58,,,,,,,,,,,1.8,0.9,1.5*29
$GNGST,081914.000,8.68,4.83,3.40,160.24,4.69,3.59,6.81*48
$GNRMC,081914.000,A,3724.3260,N,12707.3711,E,20.27,86.91,270225,8.75,W,A*35
$GNVTG,86.91,T,95.66,M,20.27,N,37.5,K,A*01
